,seg_id,oci,street,street_from,street_to,seg_length_ft,seg_width_ft,func_class,pvm_class,area_sq_ft,oci_desc,oci_wt,start_lat,start_long,end_lat,end_long
19010,SS-018802,64.64,MONROE AV,32ND ST,BANCROFT ST,322.0402,36.0,Residential,AC Improved,11593.4472,Fair,749400.427008,32.7590794,-117.125028,32.7590699,-117.1239649
19011,SS-018803,63.273999999999994,MONROE AV,BANCROFT ST,33RD PL,225.0358,36.0,Residential,AC Improved,8101.2888,Fair,512600.9475312,32.7590699,-117.1239649,32.7590657,-117.123248
19012,SS-018804,81.388,MONROE AV,33RD ST,33RD ST,223.0215,36.0,Residential,AC Improved,8028.774,Good,653445.8583119999,32.7590601,-117.1229095,32.7590601,-117.1229095
19013,SS-018805,59.364,MONROE AV,FELTON ST,FELTON ST,213.0383,36.0,Residential,AC Improved,7669.3788,Fair,455285.00308319996,32.7590663,-117.1217931,32.7590663,-117.1217931
19014,SS-018806,50.73,MONROE AV,35TH PL,WILSON AV,316.057,36.0,Residential,AC Improved,11378.052,Fair,577208.57796,32.7590332,-117.1173081,32.7590231,-117.116272
19015,SS-018807,100.0,MONROE AV,WILSON AV,36TH ST,325.0404,36.0,Residential,AC Improved,11701.4544,Good,1170145.44,32.7590231,-117.116272,32.7590066,-117.1152119
19016,SS-018808,100.0,MONROE AV,36TH ST,CHEROKEE AV,330.039,36.0,Residential,AC Improved,11881.403999999999,Good,1188140.4,32.7590066,-117.1152119,32.7589996,-117.1141576
19017,SS-018809,49.82,MONROE AV,CHEROKEE AV,37TH ST,321.0408,36.0,Residential,AC Improved,11557.4688,Fair,575793.095616,32.7589996,-117.1141576,32.758989,-117.1130973
19018,SS-018810,48.33,MONROE AV,39TH ST,40TH ST,319.15,36.0,Residential,AC Improved,11489.4,Fair,555282.702,32.7589748,-117.1104124,32.7589744,-117.1093658
19019,SS-018812,94.436,MONROE AV,CENTRAL AV,KENSINGTON DR,247.0333,36.0,Residential,AC Improved,8893.1988,Good,839838.1218768001,32.7588751,-117.1082151,32.7588703,-117.1074067
19020,SS-018813,91.18,MONROE AV,49TH ST,WINONA AV,333.3325,40.0,Collector,AC Improved,13333.3,Good,1215730.294,32.7590176,-117.0889709,32.7590043,-117.087885
19021,SS-018814,89.958,MONROE AV,41ST ST,MARLBOROUGH DR,242.0338,36.0,Residential,AC Improved,8713.2168,Good,783823.5568944,32.7588667,-117.1071581,32.7588648,-117.1063875
19022,SS-018815,91.516,MONROE AV,WINONA AV,50TH ST,331.1127,36.0,Collector,AC Improved,11920.0572,Good,1090875.9547152,32.7590043,-117.087885,32.7589967,-117.0868266
19023,SS-018816,61.894,MONROE AV,MARLBOROUGH AV,EDGEWARE RD,230.0349,36.0,Residential,AC Improved,8281.2564,Fair,512560.08362159994,32.7588632,-117.1060951,32.7588647,-117.1053623
19024,SS-018817,96.772,MONROE AV,50TH ST,ALTADENA AV,333.0029,36.0,Collector,AC Improved,11988.1044,Good,1160112.8389968001,32.7589967,-117.0868266,32.7589792,-117.085751
19025,SS-018818,71.278,MONROE AV,42ND ST,VAN DYKE AV,393.9604,40.0,Collector,AC Improved,15758.416000000001,Good,1123228.375648,32.7588629,-117.1048124,32.7588429,-117.102428
19026,SS-018819,94.476,MONROE AV,ALTADENA AV,51ST ST,328.2586,36.0,Collector,AC Improved,11817.3096,Good,1116452.1417696,32.7589792,-117.085751,32.7589842,-117.084661
19027,SS-018820,96.416,MONROE AV,51ST ST,52ND ST,329.00300000000004,36.0,Collector,AC Improved,11844.108,Good,1141961.5169280001,32.7589842,-117.084661,32.7589703,-117.0835747
19028,SS-018821,92.78,MONROE AV,52ND ST,DAWSON AV,328.0549,36.0,Collector,AC Improved,11809.9764,Good,1095729.610392,32.7589703,-117.0835747,32.7589689,-117.0825149
19029,SS-018823,71.64399999999999,MONTALVO ST,CLOVIS ST,WEST POINT LOMA BL,897.7999,36.0,Residential,AC Improved,32320.7964,Good,2315591.1372816004,32.7502016,-117.2327036,32.7516695,-117.2350962
19030,SS-018824,75.318,MONTALVO ST,CAMULOS ST,CLOVIS ST,660.2311,36.0,Residential,AC Improved,23768.3196,Good,1790182.2956327999,32.7491515,-117.2309636,32.7502016,-117.2327036
19033,SS-018827,72.732,MONTARA AV,ZAPATA AV,MONTARA CT,415.1736,36.0,Residential,AC Improved,14946.2496,Good,1087070.6259072,32.9245203,-117.151943,32.9245564,-117.1505993
19035,SS-018829,86.13,MONTAUBON CR,MONTAUBON WY,MONTAUBON WY,317.8187,30.0,Residential,AC Improved,9534.561,Good,821211.73893,32.922931,-117.087715,32.922931,-117.087715
19036,SS-018830,85.234,MONTAUBON WY,WALDORF WY,MONTAUBON CR,312.1035,32.0,Residential,AC Improved,9987.312,Good,851258.551008,32.9233316,-117.0890463,32.922931,-117.087715
19037,SS-018831,89.14,MONTAUBON WY,MONTAUBON CR,MONTAUBON CR,150.1065,32.0,Residential,AC Improved,4803.407999999999,Good,428175.78912,32.922931,-117.087715,32.922931,-117.087715
19039,SS-018833,89.522,MONTAUBON WY,WALDORF WY,GATEMOORE WY,686.7249,32.0,Residential,AC Improved,21975.1968,Good,1967263.5679296001,32.9233316,-117.0890463,32.9233316,-117.0890463
19040,SS-018834,62.8,MONTCLAIR ST,KALMIA ST,MAPLE ST,678.4283,36.0,Residential,AC Improved,24423.4188,Fair,1533790.70064,32.7311317,-117.115991,32.7329284,-117.1166029
19041,SS-018835,64.05199999999999,MONTCLAIR ST,BECKY PL,KALMIA ST,1287.3031,36.0,Residential,AC Improved,46342.9116,Fair,2968356.1738032,32.72776,-117.1147787,32.7311317,-117.115991
19042,SS-018836,67.664,MONTCLAIR ST,BOUNDARY ST,BECKY PL,454.6822,36.0,Residential,AC Improved,16368.5592,Fair,1107562.1897088,32.7268024,-117.1152731,32.72776,-117.1147787
19043,SS-018837,77.558,MONTCLAIR ST,COOPER ST,MAPLE ST,639.4484,30.0,Residential,AC Improved,19183.452,Good,1487830.170216,32.7345761,-117.1172578,32.7329284,-117.1166029
19045,SS-018839,65.208,MONTCLIFF RD,BIGNELL DR,NEBRASKA AV,296.5888,36.0,Residential,AC Improved,10677.1968,Fair,696238.6489344,32.68956,-117.036293,32.6887928,-117.0366199
19046,SS-018840,73.414,MONTCLIFF RD,NEBRASKA AV,ALSACIA ST,1392.9599,36.0,Residential,AC Improved,50146.5564,Good,3681459.2915496,32.6887928,-117.0366199,32.68557,-117.0350825
19047,SS-018841,61.578,MONTCLIFF RD,ALSACIA ST,GOODE ST,731.5819,32.0,Residential,AC Improved,23410.6208,Fair,1441579.2076223998,32.68557,-117.0350825,32.6845171,-117.0330479
19048,SS-018842,66.936,MONTCLIFF RD,GOODE ST,ALTA VIEW DR,693.3548,32.0,Collector,AC Improved,22187.3536,Fair,1485132.7005696,32.6845171,-117.0330479,32.6832855,-117.0313422
19049,SS-018843,47.004,MONTCLIFF RD,ALTA VIEW DR,WESTBROOK AV,309.0063,40.0,Collector,AC Improved,12360.252,Fair,580981.285008,32.6832855,-117.0313422,32.6827651,-117.0305651
19050,SS-018844,44.492,MONTE VERDE DR,MELOTTE ST,GOLFCREST DR,305.7925,40.0,Residential,AC Improved,12231.7,Fair,544212.7964,32.8112492,-117.044167,32.8115188,-117.0432403
19051,SS-018845,41.692,MONTE VERDE DR,ROWENA ST,MELOTTE ST,316.5517,40.0,Residential,AC Improved,12662.068000000001,Fair,527906.9390560001,32.8109724,-117.0451404,32.8112492,-117.044167
19052,SS-018846,52.176,MONTE VERDE DR,TUXEDO RD,ROWENA ST,2281.0123,40.0,Residential,AC Improved,91240.492,Fair,4760563.910592,32.8125957,-117.0516857,32.8109724,-117.0451404
19054,SS-018848,92.25,MONTE VISTA AV,SEA LN,MARINE ST,358.9543,30.0,Prime,AC Improved,10768.628999999999,Good,993406.02525,32.8361302,-117.2795546,32.8370762,-117.2798577
19055,SS-018849,59.2,MONTE VISTA AV,ARENAS ST,DUNEMERE DR,97.2678,30.0,Prime,AC Improved,2918.034,Fair,172747.6128,32.8347649,-117.2792895,32.8350363,-117.2793694
19056,SS-018850,44.748000000000005,MONTE VISTA AV,VISTA DE LA PLAYA,ARENAS ST,138.7513,30.0,Prime,AC Improved,4162.539000000001,Fair,186265.295172,32.8344047,-117.2791654,32.8347649,-117.2792895
19057,SS-018851,35.111999999999995,MONTE VISTA AV,FERN GLEN,VISTA DE LA PLAYA,213.2161,30.0,Prime,AC Improved,6396.483,Poor,224593.311096,32.8336211,-117.2789129,32.8344047,-117.2791654
19058,SS-018852,47.0,MONTE VISTA AV,FERN GLEN,FERN GLEN,72.2772,30.0,Residential,AC Improved,2168.3160000000003,Fair,101910.852,32.8336211,-117.2789129,32.8336211,-117.2789129
19059,SS-018853,77.452,MONTE VISTA AV,BELVEDERE ST,FERN GLEN,203.4944,30.0,Residential,AC Improved,6104.831999999999,Good,472831.44806400005,32.8331196,-117.2787534,32.8336211,-117.2789129
19060,SS-018854,59.52,MONTE VISTA AV,WESTBOURNE ST,BELVEDERE ST,288.1406,30.0,Residential,AC Improved,8644.218,Fair,514503.85536000005,32.8323365,-117.2784971,32.8331196,-117.2787534
19061,SS-018855,33.0,MONTE VISTA AV,DUNEMERE DR,DUNE LN,200.5916,30.0,Prime,AC Improved,6017.7480000000005,Poor,198585.68399999998,32.8350363,-117.2793694,32.8355685,-117.279539
19062,SS-018856,70.928,MONTECITO WY,01ST AV,BACHMAN PL,282.0023,30.0,Residential,AC Improved,8460.069,Good,600055.774032,32.7467767,-117.1639326,32.7528397,-117.1631981
19063,SS-018857,73.584,MONTECITO WY,BACHMAN PL,03RD AV,293.0078,30.0,Local,AC Improved,8790.234,Good,646820.5786560001,32.7528397,-117.1631981,32.7532277,-117.16209
19064,SS-018858,69.67,MONTECITO WY,03RD AV,04TH AV,265.9998,30.0,Local,AC Improved,7979.994000000001,Fair,555966.18198,32.7532277,-117.16209,32.7515341,-117.161979
19067,SS-018862,85.316,MONTEGO DR,GABACHO DR,MONTEGO PL,316.6194,36.0,Residential,AC Improved,11398.2984,Good,972457.2262944,32.8307321,-117.1022729,32.8299016,-117.1022553
19068,SS-018863,86.42,MONTEGO DR,MONTEGO PL,MANTUA CT,253.1221,36.0,Residential,AC Improved,9112.3956,Good,787493.2277520001,32.8299016,-117.1022553,32.8294357,-117.1016153
19069,SS-018864,84.78,MONTEGO DR,MANTUA CT,AZORES CT,238.1219,36.0,Residential,AC Improved,8572.3884,Good,726767.088552,32.8294357,-117.1016153,32.829147,-117.1009319
19070,SS-018865,83.384,MONTEGO DR,AZORES CT,BENGAL CT,220.2294,36.0,Residential,AC Improved,7928.2584,Good,661089.8984255999,32.829147,-117.1009319,32.8289097,-117.1002706
19071,SS-018866,79.64,MONTEGO DR,BENGAL CT,POR TECHO CT,220.7373,36.0,Residential,AC Improved,7946.5428,Good,632862.668592,32.8289097,-117.1002706,32.8286653,-117.0995893
19072,SS-018867,82.544,MONTEGO DR,JAZMIN CT,ADUAR CT,282.0444,36.0,Residential,AC Improved,10153.5984,Good,838118.6263296,32.8284715,-117.0948886,32.828483,-117.0939855
19073,SS-018868,86.352,MONTEGO DR,LA CUENTA DR,JAZMIN CT,348.0359,36.0,Residential,AC Improved,12529.2924,Good,1081929.4573248,32.8284382,-117.0960568,32.8284715,-117.0948886
19074,SS-018869,86.97,MONTEGO DR,HUARACHA CT,LA CUENTA DR,296.7111,36.0,Residential,AC Improved,10681.5996,Good,928978.717212,32.8283024,-117.0969744,32.8284382,-117.0960568
19075,SS-018870,84.3,MONTEGO DR,POR TECHO CT,EL NOCHE WY,536.3158,36.0,Residential,AC Improved,19307.3688,Good,1627611.18984,32.8286653,-117.0995893,32.8282757,-117.0979135
19076,SS-018871,79.546,MONTEGO DR,EL NOCHE WY,HUARACHA CT,290.1403,36.0,Residential,AC Improved,10445.0508,Good,830862.0109368,32.8282757,-117.0979135,32.8283024,-117.0969744
19081,SS-018880,78.342,MONTEREY CYPRESS WY,CYPRESS GLEN PL,CARMEL CENTER RD,267.8753,26.0,Residential,AC Improved,6964.7578,Good,545633.0555676,32.9472558,-117.2197026,32.947978,-117.2196878
19083,SS-018882,85.75,MONTEREY PARK DR,IRIS AV,VILLAGE PINE DR,358.314,40.0,Residential,AC Improved,14332.56,Good,1229017.02,32.5690941,-117.0701602,32.5681226,-117.0701169
19085,SS-018884,28.74,MONTEREY PINE DR,IRIS AV,TERRACE PINE DR,280.8389,40.0,Residential,AC Improved,11233.556,Poor,322852.39944,32.5690965,-117.072191,32.5682747,-117.0720792
19086,SS-018885,33.39,MONTEREY PINE DR,TERRACE PINE DR,VILLAGE PINE DR,288.5735,40.0,Residential,AC Improved,11542.94,Poor,385418.7666,32.5682747,-117.0720792,32.5675267,-117.0720976
19090,SS-018889,75.57,MONTERO RD,GRANDEE PL,GIBRALTAR CT,1448.7868,40.0,Residential,AC Improved,57951.472,Good,4379392.73904,33.0261767,-117.0582032,33.0261211,-117.0540137
19091,SS-018890,69.34,MONTERO RD,GIBRALTAR DR,GRANDEE PL,284.2942,40.0,Residential,AC Improved,11371.768,Fair,788518.39312,33.0254655,-117.0586329,33.0261767,-117.0582032
19092,SS-018891,89.584,MONTERO RD,GIBRALTAR CT,ABRA DR,653.9086,40.0,Residential,AC Improved,26156.343999999997,Good,2343189.9208959998,33.0261211,-117.0540137,33.0251364,-117.0522819
19093,SS-018892,67.388,MONTERO RD,MONTERO CT,GIBRALTAR DR,227.4121,36.0,Residential,AC Improved,8186.8356,Fair,551694.4774128001,33.024867,-117.0587026,33.0254655,-117.0586329
19094,SS-018893,58.653999999999996,MONTERO RD,MONTERO WY,MONTERO CT,222.0947,36.0,Residential,AC Improved,7995.4092,Fair,468962.73121680005,33.0243403,-117.0583208,33.024867,-117.0587026
19095,SS-018894,53.3,MONTERO RD,MONTERO PL,MONTERO WY,207.3862,36.0,Residential,AC Improved,7465.9032,Fair,397932.64055999997,33.0239554,-117.0578071,33.0243403,-117.0583208
19096,SS-018895,77.456,MONTERO RD,PACATO NORTH CR,MONTERO PL,362.0464,36.0,Residential,AC Improved,13033.6704,Good,1009535.9745024,33.0231146,-117.0572943,33.0239554,-117.0578071
19097,SS-018896,69.296,MONTERO RD,ABRA DR,CITY BOUNDARY,173.3765,40.0,Residential,AC Improved,6935.06,Fair,480571.91776000004,33.0251364,-117.0522819,33.0260273,-117.0538904
19099,SS-018898,90.556,MONTESSA ST,ALEJO LN,ALEJO ST,862.1608,36.0,Residential,AC Improved,31037.7888,Good,2810658.0025727996,32.8328419,-117.0801511,32.8323285,-117.0823799
19100,SS-018899,90.67200000000001,MONTESSA ST,ALEJO ST,CASALS PL,414.1799,36.0,Residential,AC Improved,14910.4764,Good,1351962.7161408002,32.8323285,-117.0823799,32.8320261,-117.0810819
19101,SS-018900,90.00399999999999,MONTESSA ST,CASALS PL,ALEJO LN,463.0448,36.0,Residential,AC Improved,16669.6128,Good,1500331.8304512,32.8320261,-117.0810819,32.8328419,-117.0801511
19102,SS-018904,70.13600000000001,MONTEZUMA RD,CAM DEL RIO SOUTH,MONTEZUMA WB OFF RA,629.0,16.0,Major,AC Improved,10064.0,Good,705848.704,32.7668569,-117.1447127,32.7707666,-117.076461
19103,SS-018905,71.666,MONTEZUMA RD,55TH ST,CAMPANILE DR,1333.0033,73.0,Major,AC Improved,97309.2409,Good,6973764.058339399,32.7707659,-117.0762469,32.7707596,-117.0718396
19104,SS-018906,71.888,MONTEZUMA RD,CAMPANILE DR,MONTEZUMA PL,467.0586,52.0,Major,AC Improved,24287.0472,Good,1745947.2491136002,32.7707596,-117.0718396,32.7707783,-117.0704204
19105,SS-018907,69.942,MONTEZUMA RD,MONTEZUMA PL,COLLEGE AV,173.96200000000002,52.0,Major,AC Improved,9046.024,Fair,632697.010608,32.7707783,-117.0704204,32.7706585,-117.0697242
19106,SS-018908,87.272,MONTEZUMA RD,EAST FALLS VIEW DR,63RD ST,214.0,66.0,Major,AC Improved,14124.0,Good,1232629.728,32.7705524,-117.0650954,32.770497,-117.0643533
19107,SS-018909,85.264,MONTEZUMA RD,63RD ST,ART ST,346.6597,66.0,Major,AC Improved,22879.5402,Good,1950801.1156128002,32.770497,-117.0643533,32.7702189,-117.0633161
19108,SS-018910,79.46600000000001,MONTEZUMA RD,COLLWOOD BL,YERBA SANTA DR,515.3879,48.0,Major,AC Improved,24738.6192,Good,1965879.1133472,32.7699874,-117.0860011,32.77084780000001,-117.0845113
19109,SS-018911,85.76799999999999,MONTEZUMA RD,ART ST,EWING ST,239.4934,66.0,Major,AC Improved,15806.5644,Good,1355697.4154591998,32.7702189,-117.0633161,32.7701501,-117.0624724
19110,SS-018912,88.806,MONTEZUMA RD,EWING ST,GARY ST,589.2926,66.0,Major,AC Improved,38893.3116,Good,3453959.4299496002,32.7701501,-117.0624724,32.7697255,-117.0606619
19111,SS-018913,92.14200000000001,MONTEZUMA RD,GARY ST,GARY ST,174.8743,66.0,Major,AC Improved,11541.7038,Good,1063475.6715396,32.7697255,-117.0606619,32.7697255,-117.0606619
19112,SS-018914,86.944,MONTEZUMA RD,GARY ST,LA DORNA ST,340.3659,66.0,Major,AC Improved,22464.1494,Good,1953123.0054336002,32.7697255,-117.0606619,32.7695034,-117.0589972
19113,SS-018915,84.85600000000001,MONTEZUMA RD,LA DORNA ST,CATOCTIN DR,193.0,66.0,Major,AC Improved,12738.0,Good,1080895.728,32.7695034,-117.0589972,32.7693864,-117.0583663
19114,SS-018916,91.774,MONTEZUMA RD,RESERVOIR DR,EL CAJON BL,755.0,66.0,Major,AC Improved,49830.0,Good,4573098.42,32.7690153,-117.0565109,32.7683114,-117.0542067
19115,SS-018918,68.60600000000001,MONTEZUMA RD,54TH ST,55TH ST,1014.8844,32.0,Major,AC Improved,32476.3008,Fair,2228069.0926848,32.7710582,-117.0795036,32.7707659,-117.0762469
19116,SS-018919,77.178,MONTEZUMA RD,MONTEZUMA WB OFF RA,COLLWOOD BL,3050.2070000000003,32.0,Major,AC Improved,97606.62400000001,Good,7533084.027072,32.7707666,-117.076461,32.7699874,-117.0860011
19117,SS-018920,68.906,MONTEZUMA RD,COLLEGE AV,ROCKFORD DR,304.0,66.0,Major,AC Improved,20064.0,Fair,1382529.9840000002,32.7706585,-117.0697242,32.770661,-117.0688245
19118,SS-018921,81.688,MONTEZUMA RD,ROCKFORD DR,EAST FALLS VIEW DR,1156.0,66.0,Major,AC Improved,76296.0,Good,6232467.647999999,32.770661,-117.0688245,32.7705524,-117.0650954
19119,SS-018922,83.292,MONTEZUMA RD,CATOCTIN DR,RESERVOIR DR,596.0,66.0,Major,AC Improved,39336.0,Good,3276374.1119999997,32.7693864,-117.0583663,32.7690153,-117.0565109
19120,SS-018923,86.712,MONTEZUMA WB OFF RA,MONTEZUMA RD,FAIRMOUNT AV,792.4557,30.0,Major,AC Improved,23773.671000000002,Good,2061462.559752,32.7707666,-117.076461,32.7707666,-117.076461
19122,SS-018925,65.964,MONTFORT CT,BOULTON AV,CHIPPENHAM WY,268.9626,32.0,Residential,AC Improved,8606.8032,Fair,567739.1662848,32.9733168,-117.0789712,32.97405810000001,-117.0790316
19126,SS-018929,75.55,MONTONGO ST,TYROLEAN RD,ACAMA ST,252.4687,40.0,Prime,AC Improved,10098.748,Good,762960.4114,32.9257845,-117.1542659,32.9264666,-117.1541167
19127,SS-018930,71.77600000000001,MONTONGO ST,WESTMORE RD,MONTONGO CR,233.9758,40.0,Prime,AC Improved,9359.032,Good,671753.8808319999,32.9173134,-117.152263,32.9179181,-117.1525135
19128,SS-018931,76.55199999999999,MONTONGO ST,NEW SALEM ST,WESTMORE RD,412.3628,40.0,Prime,AC Improved,16494.512,Good,1262687.882624,32.9161782,-117.15225,32.9173134,-117.152263
19129,SS-018932,60.4,MONTONGO ST,GAYLEN RD,NEW SALEM ST,255.0178,40.0,Prime,AC Improved,10200.712,Fair,616123.0048,32.9154791,-117.1522488,32.9161782,-117.15225
19130,SS-018933,53.01,MONTONGO ST,GOLETA RD,GAYLEN RD,252.0177,40.0,Prime,AC Improved,10080.708,Fair,534378.33108,32.9147788,-117.1522542,32.9154791,-117.1522488
19131,SS-018934,52.958,MONTONGO ST,CRONAN CR,GOLETA RD,278.0289,40.0,Prime,AC Improved,11121.156,Fair,588954.1794479999,32.9140198,-117.1522623,32.9147788,-117.1522542
19132,SS-018935,54.994,MONTONGO ST,ALCAMO RD,CRONAN CR,161.0124,40.0,Prime,AC Improved,6440.496,Fair,354188.637024,32.913578,-117.1522633,32.9140198,-117.1522623
19133,SS-018936,80.968,MONTONGO ST,MIRA MESA BL,ALCAMO RD,606.5299,64.0,Prime,AC Improved,38817.9136,Good,3143008.8283647997,32.9120225,-117.1522377,32.913578,-117.1522633
19134,SS-018937,73.91199999999999,MONTONGO ST,MONTONGO CR,TYROLEAN RD,2964.9022,30.0,Prime,AC Improved,88947.06599999999,Good,6574255.542192,32.9179181,-117.1525135,32.9257845,-117.1542659
19137,SS-018940,60.68,MONTURA DR,TESORO DR,POMERADO CT,175.1268,36.0,Residential,AC Improved,6304.5648,Fair,382560.992064,33.0221942,-117.0614435,33.022665,-117.0612972
19139,SS-018942,78.416,MONUMENT RD,SATURN BL,HOLLISTER ST,2844.2685,40.0,Local,AC Unimproved,113770.74,Good,8921446.34784,32.5445181,-117.0927592,32.5436274,-117.0840812
19141,SS-018944,62.028,MONUMENT RD,HOLLISTER ST,DAIRY MART RD,4494.6295,30.0,Local,AC Unimproved,134838.885,Fair,8363786.35878,32.5436274,-117.0840812,32.5447214,-117.0710806
19142,SS-018945,47.302,MONUMENT RD,CITY BOUNDARY,SATURN BL,8546.2377,20.0,Local,AC Unimproved,170924.754,Fair,8085082.713708,32.5444446,-117.0933525,32.5445181,-117.0927592
19144,SS-018947,81.818,MOON SONG CT,POBLADO RD,BEAR DANCE WY,894.1237,32.0,Residential,AC Improved,28611.9584,Good,2340973.2123712003,33.0397572,-117.0886258,33.04214440000001,-117.0892675
19146,SS-018949,67.586,MOONLIGHT LN,RUTGERS RD,CANDLELIGHT DR,972.6182,36.0,Prime,AC Improved,35014.2552,Fair,2366473.4519472,32.8134104,-117.2560916,32.815235,-117.2582565
19147,SS-018950,42.71,MOONRIDGE DR,STARLIGHT DR,LA JOLLA SCENIC N DR,502.8798,36.0,Residential,AC Improved,18103.6728,Fair,773207.865288,32.849327,-117.2423961,32.8496129,-117.2408998
19148,SS-018951,41.59,MOONRIDGE DR,COSTEBELLE DR,STARLIGHT DR,281.7887,36.0,Residential,AC Improved,10144.3932,Fair,421905.313188,32.8489416,-117.2431006,32.849327,-117.2423961
19150,SS-018953,63.854,MOONSTONE DR,BROADVIEW AV,RONDA AV,785.5658,36.0,Residential,AC Improved,28280.3688,Fair,1805814.6693552,32.7892012,-117.1234322,32.7912552,-117.1241425
19151,SS-018954,88.0,MOORE ST,CAM DEL RIO WEST,GREENWOOD ST,131.6052,25.0,Residential,AC Improved,3290.13,Good,289531.44,32.7562405,-117.203947,32.7546611,-117.2063142
19152,SS-018955,23.844,MOORE ST,GAINES ST,RILEY ST,344.8186,40.0,Residential,PCC Jointed Concrete,13792.743999999999,Poor,328874.187936,32.7547392,-117.2043943,32.749383,-117.1947126
19153,SS-018956,27.1,MOORE ST,ROSECRANS ST,GAINES ST,378.41900000000004,40.0,Residential,PCC Jointed Concrete,15136.76,Poor,410206.196,32.753862,-117.2025256,32.7547392,-117.2043943
19154,SS-018957,75.634,MOORE ST,AMPUDIA ST,ARISTA ST,360.7543,34.0,Collector,AC Improved,12265.6462,Good,927699.8846908001,32.7487103,-117.1941944,32.7493869,-117.1950444
19155,SS-018958,60.8,MOORE ST,OLD TOWN AV,AMPUDIA ST,352.4044,34.0,Collector,AC Improved,11981.7496,Fair,728490.37568,32.748131,-117.1932616,32.7487103,-117.1941944
19156,SS-018959,44.65,MOORE ST,HORTENSIA ST,OLD TOWN AV,345.0363,34.0,Collector,AC Improved,11731.2342,Fair,523799.60703,32.7475978,-117.1923396,32.748131,-117.1932616
19157,SS-018961,58.0,MOORLAND DR,JEWELL ST,CROWN POINT DR,154.99,30.0,Residential,PCC Jointed Concrete,4649.7,Fair,269682.6,32.7871311,-117.2353538,32.7873142,-117.2345917
19158,SS-018962,69.55,MOORLAND DR,JEWELL ST,JEWELL ST,82.4623,30.0,Residential,PCC Jointed Concrete,2473.869,Fair,172057.58895,32.7871311,-117.2353538,32.7871311,-117.2353538
19159,SS-018963,87.9,MOORLAND DR,PROMONTORY ST,PROMONTORY ST,71.309,30.0,Residential,PCC Jointed Concrete,2139.27,Good,188041.833,32.7866329,-117.2375744,32.7866329,-117.2375744
19160,SS-018964,67.214,MOORLAND DR,BAYONNE DR,PROMONTORY ST,162.9874,30.0,Residential,PCC Jointed Concrete,4889.622,Fair,328651.05310799996,32.7864743,-117.2383107,32.7866329,-117.2375744
19161,SS-018965,85.39200000000001,MOORLAND DR,HAINES ST,BAYONNE DR,135.0927,30.0,Residential,PCC Jointed Concrete,4052.781,Good,346075.075152,32.7863854,-117.2387164,32.7864743,-117.2383107
19162,SS-018966,86.0,MOORLAND DR,BUENA VISTA ST,HAINES ST,91.4824,30.0,Residential,PCC Jointed Concrete,2744.472,Good,236024.592,32.78631360000001,-117.2390329,32.7863854,-117.2387164
19163,SS-018968,65.89399999999999,MOORLAND DR,YOSEMITE ST,JEWELL ST,222.4112,30.0,Residential,PCC Jointed Concrete,6672.335999999999,Fair,439666.908384,32.7869991,-117.2359873,32.7871311,-117.2353538
19164,SS-018969,62.9,MOORLAND DR,INGRAHAM ST,YOSEMITE ST,268.9777,30.0,Residential,PCC Jointed Concrete,8069.331,Fair,507560.9199,32.7867981,-117.23686,32.7869991,-117.2359873
19165,SS-018970,68.74,MOORLAND DR,PROMONTORY ST,INGRAHAM ST,224.1099,30.0,Residential,PCC Jointed Concrete,6723.297,Fair,462159.43578,32.7866329,-117.2375744,32.7867981,-117.23686
19166,SS-018971,55.99,MOORLAND DR,RIVIERA DR,BUENA VISTA ST,210.3214,30.0,Residential,PCC Jointed Concrete,6309.642,Fair,353276.85558000003,32.7861768,-117.2396882,32.78631360000001,-117.2390329
19167,SS-018972,95.0,MOORLAND HEIGHTS WY,WILD BLOSSOM TR,SORRENTO VALLEY BL,159.599,40.0,Residential,AC Improved,6383.96,Good,606476.2,32.910614,-117.200394,32.9108639,-117.2007296
19168,SS-018973,90.44,MOORLAND HEIGHTS WY,SETTING SUN WY,WILD BLOSSOM TR,272.0377,36.0,Residential,AC Improved,9793.3572,Good,885711.225168,32.9099062,-117.2001745,32.910614,-117.200394
19169,SS-018974,59.4,MORAEA ST,PITTSBURGH AV,VARNEY DR,353.2228,36.0,Residential,AC Improved,12716.0208,Fair,755331.63552,32.6975107,-117.0601151,32.6965629,-117.059989
19171,SS-018976,44.91,MORAGA AV,NEOSHO PL,OGALALA AV,189.28900000000002,36.0,Residential,AC Improved,6814.404,Fair,306034.88364,32.8308146,-117.2120788,32.831318,-117.211884
19172,SS-018977,62.528,MORAGA AV,MOCCASIN AV,NEOSHO PL,268.0017,36.0,Residential,AC Improved,9648.0612,Fair,603273.9707135999,32.8300646,-117.2122874,32.8308146,-117.2120788
19173,SS-018978,55.226000000000006,MORAGA AV,LUNA AV,MOCCASIN AV,314.7291,36.0,Residential,AC Improved,11330.2476,Fair,625724.2539576,32.829323,-117.212677,32.8300646,-117.2122874
19174,SS-018979,50.114,MORAGA AV,IDLEWILD WY,JEMEZ DR,254.8921,40.0,Prime,AC Improved,10195.684000000001,Fair,510946.507976,32.8273639,-117.214234,32.827959,-117.213778
19175,SS-018980,70.27600000000001,MORAGA AV,HOPI PL,IDLEWILD WY,395.8224,40.0,Prime,AC Improved,15832.896,Good,1112672.5992959999,32.8264016,-117.2148102,32.8273639,-117.214234
19176,SS-018981,81.296,MORAGA AV,GEDDES DR,HOPI PL,946.304,40.0,Prime,AC Improved,37852.16,Good,3077229.19936,32.8239462,-117.2142102,32.8264016,-117.2148102
19177,SS-018982,85.17399999999999,MORAGA AV,KAMLOOP AV,GEDDES DR,785.2255,40.0,Prime,AC Improved,31409.02,Good,2675231.86948,32.8219338,-117.213502,32.8239462,-117.2142102
19178,SS-018983,80.232,MORAGA AV,MORAGA CT,KAMLOOP AV,431.9944,40.0,Prime,AC Improved,17279.776,Good,1386390.988032,32.8207424,-117.2133065,32.8219338,-117.213502
19179,SS-018984,83.344,MORAGA AV,TACOMA ST,MORAGA CT,710.5654,40.0,Prime,AC Improved,28422.616,Good,2368854.507904,32.8191381,-117.2120582,32.8207424,-117.2133065
19180,SS-018985,40.802,MORAGA AV,FOX AV,TACOMA ST,418.151,40.0,Prime,AC Improved,16726.04,Fair,682455.88408,32.8180707,-117.2115448,32.8191381,-117.2120582
19181,SS-018986,41.758,MORAGA AV,WICOPEE PL,FOX AV,582.5135,40.0,Prime,AC Improved,23300.54,Fair,972983.9493200001,32.81657,-117.210907,32.8180707,-117.2115448
19182,SS-018987,59.54600000000001,MORAGA AV,ECOCHEE AV,WICOPEE PL,524.4997,40.0,Prime,AC Improved,20979.987999999998,Fair,1249274.365448,32.81517,-117.210938,32.81657,-117.210907
19183,SS-018988,85.2,MORAGA AV,ELSINORE PL,ECOCHEE AV,238.7574,40.0,Prime,AC Improved,9550.296,Good,813685.2192,32.814545,-117.211166,32.81517,-117.210938
19184,SS-018989,90.8,MORAGA AV,KENOSHA AV,ELSINORE PL,250.7686,40.0,Prime,AC Improved,10030.744,Good,910791.5552,32.813889,-117.211418,32.814545,-117.211166
19185,SS-018990,42.202,MORAGA AV,CADDEN DR,KENOSHA AV,1352.8433,40.0,Prime,AC Improved,54113.732,Fair,2283707.717864,32.8102555,-117.2115175,32.813889,-117.211418
19186,SS-018991,42.062,MORAGA AV,CLAIREMONT MESA BL,LUNA AV,299.2828,40.0,Residential,AC Improved,11971.312,Fair,503537.32534399995,32.8286017,-117.213254,32.829323,-117.212677
19187,SS-018992,56.08,MORAGA AV,JEMEZ DR,CLAIREMONT MESA BL,302.5924,40.0,Prime,AC Improved,12103.696000000002,Fair,678775.27168,32.827959,-117.213778,32.8286017,-117.213254
19188,SS-018993,34.996,MORAGA AV,MONAIR DR,CADDEN DR,572.4066,68.0,Prime,AC Improved,38923.6488,Poor,1362172.0134048,32.8087695,-117.2110202,32.8102555,-117.2115175
19189,SS-018994,26.601999999999997,MORAGA AV,BALBOA AV,MONAIR DR,349.0853,68.0,Prime,AC Improved,23737.8004,Poor,631472.9662408001,32.8078409,-117.2105461,32.8087695,-117.2110202
19190,SS-018995,48.294,MORAGA CT,AVATI DR,MORAGA AV,254.4814,43.0,Prime,AC Improved,10942.7002,Fair,528466.7634588,32.8204645,-117.2141239,32.8207424,-117.2133065
19192,SS-018997,62.178000000000004,MORAGA PL,PADUCAH DR,KENOSHA AV,337.4152,36.0,Residential,AC Improved,12146.9472,Fair,755272.8830015999,32.814175,-117.212463,32.813889,-117.211418
19198,SS-019004,51.468,MOREHOUSE DR,SCRANTON RD,LUSK BL,2544.1701,44.0,Residential,AC Improved,111943.4844,Fair,5761507.255099201,32.8936979,-117.2016379,32.8975447,-117.1952926
19199,SS-019027,70.192,MORENA BL,NASHVILLE ST,FRANKFORT ST,288.0016,36.0,Prime,AC Improved,10368.0576,Good,727754.6990591999,32.7742078,-117.2053449,32.77467,-117.206108
19200,SS-019028,32.4,MORENA BL,LEHIGH ST,NASHVILLE ST,294.4012,36.0,Prime,AC Improved,10598.4432,Poor,343389.55968,32.7737384,-117.2045858,32.7742078,-117.2053449
19201,SS-019029,38.296,MORENA BL,KNOXVILLE ST,LEHIGH ST,293.8042,40.0,Prime,AC Improved,11752.168,Poor,450061.025728,32.7732645,-117.203813,32.7737384,-117.2045858
19202,SS-019030,56.058,MORENA BL,TECOLOTE RD,KNOXVILLE ST,382.2383,41.0,Prime,AC Improved,15671.7703,Fair,878528.0994774001,32.7726124,-117.2027434,32.7732645,-117.203813
19203,SS-019031,52.328,MORENA BL,VIOLA ST,TECOLOTE RD,429.4382,53.0,Major,AC Improved,22760.2246,Fair,1190997.0328688,32.7717133,-117.2020449,32.7726124,-117.2027434
19204,SS-019032,49.106,MORENA BL,SAVANNAH ST,VIOLA ST,309.2783,64.0,Major,AC Improved,19793.8112,Fair,971994.8927871999,32.7710527,-117.2018873,32.7717133,-117.2020449
19205,SS-019033,71.84,MORENA BL,DORCAS ST,SAVANNAH ST,400.1243,64.0,Major,AC Improved,25607.9552,Good,1839675.501568,32.7697945,-117.2015311,32.7710527,-117.2018873
19206,SS-019034,40.93,MORENA BL,MORENA PL,BUENOS AV,203.4036,64.0,Major,AC Improved,13017.8304,Fair,532819.798272,32.768544,-117.1996867,32.7690486,-117.2004216
19207,SS-019035,81.818,MORENA BL,CUSHMAN AV,MORENA PL,333.0999,55.0,Major,AC Improved,18320.4945,Good,1498946.219001,32.7679206,-117.1993692,32.768544,-117.1996867
19208,SS-019036,87.02799999999999,MORENA BL,WEST MORENA BL,CUSHMAN AV,295.5778,24.0,Major,AC Improved,7093.8672,Good,617365.0746816,32.7669644,-117.198933,32.7679206,-117.1993692
19209,SS-019052,79.0,MORENA BL,FRANKFORT ST,WEST MORENA BL,285.2072,70.0,Prime,AC Improved,19964.504,Good,1577195.8159999999,32.77467,-117.206108,32.7669644,-117.198933
19210,SS-019053,49.053999999999995,MORENA BL,BUENOS AV,DORCAS ST,455.218,64.0,Major,AC Improved,29133.952,Fair,1429136.881408,32.7690486,-117.2004216,32.7697945,-117.2015311
19211,SS-019056,78.176,MORENA BL,TAYLOR ST,FRIARS RD,1685.9849,64.0,Major,AC Improved,107903.0336,Good,8435427.5547136,32.7583934,-117.1972671,32.7680615,-117.1995772
19212,SS-019065,33.1,MORENA PL,MORENA BL,CUSHMAN AV,292.9112,36.0,Local,AC Improved,10544.8032,Poor,349032.98592,32.768544,-117.1996867,32.7682642,-117.1990597
19213,SS-019066,60.706,MORENCI ST,ASHER ST,ERIE ST,424.4008,36.0,Residential,AC Improved,15278.4288,Fair,927492.2987328001,32.7774543,-117.2049014,32.7783858,-117.2040749
19214,SS-019067,67.14,MORENCI ST,TONOPAH AV,ASHER ST,437.4036,36.0,Residential,AC Improved,15746.5296,Fair,1057221.997344,32.7764996,-117.2057675,32.7774543,-117.2049014
19215,SS-019069,37.73,MORLAN ST,GAYLORD DR,GLASGOW DR,785.1249,30.0,Residential,AC Improved,23553.747000000003,Poor,888682.87431,32.836811,-117.209961,32.836796,-117.207413
19216,SS-019070,67.788,MORLEY FIELD DR,FLORIDA DR,ALABAMA ST,499.0,40.0,Collector,PCC Jointed Concrete,19960.0,Fair,1353048.48,32.739786,-117.1437069,32.7403167,-117.1423169
19217,SS-019071,74.036,MORLEY FIELD DR,PARK BL,FLORIDA DR,1176.7524,25.0,Collector,AC Improved,29418.81,Good,2178051.01716,32.7401956,-117.1474488,32.739786,-117.1437069
19218,SS-019072,81.402,MORLEY ST,MORLEY WY,ULRIC ST,695.6778,30.0,Residential,AC Improved,20870.334,Good,1698886.928268,32.7848615,-117.1714701,32.7866744,-117.17077
19219,SS-019073,91.932,MORLEY ST,COMSTOCK ST,MORLEY WY,544.4602,30.0,Residential,AC Improved,16333.806,Good,1501599.453192,32.7834543,-117.1721148,32.7848615,-117.1714701
19220,SS-019074,71.0,MORLEY WY,EAST JEWETT ST,MORLEY ST,121.0,26.0,Residential,AC Improved,3146.0,Good,223366.0,32.7850047,-117.1718339,32.7848615,-117.1714701
19221,SS-019075,98.8,MORNING BREEZE WY,BLACK MTN RD,PACEMONT LN,234.0,32.0,Residential,AC Improved,7488.0,Good,739814.4,32.9225517,-117.1248935,32.922542,-117.1242148
19222,SS-019076,74.592,MORNING CREEK N DR,SABRE SPRINGS PY,MIDBLUFF AV,597.5011,40.0,Major,AC Improved,23900.043999999998,Good,1782752.082048,32.9536395,-117.0952914,32.9588418,-117.091478
19223,SS-019077,63.668,MORNING CREEK N DR,MIDBLUFF AV,EVENING CREEK E DR,383.4176,40.0,Major,AC Improved,15336.704,Fair,976457.2702719999,32.9588418,-117.091478,32.9583807,-117.0903263
19224,SS-019078,74.67399999999999,MORNING CREEK N DR,EVENING CREEK E DR,MIDDLE RIDGE TR,630.7757,40.0,Major,AC Improved,25231.028,Good,1884101.784872,32.9583807,-117.0903263,32.9568199,-117.0896604
19225,SS-019079,66.3,MORNING CREEK S DR,OLD SYCAMORE DR,MIDDLE RIDGE TR,1036.4341,40.0,Major,AC Improved,41457.364,Fair,2748623.2332,32.9544687,-117.0913277,32.9568199,-117.0896604
19226,SS-019080,68.25,MORNING CREEK S DR,SABRE SPRINGS PY,OLD SYCAMORE DR,481.3702,40.0,Major,AC Improved,19254.808,Fair,1314140.646,32.9536395,-117.0952914,32.9544687,-117.0913277
19227,SS-019081,70.32600000000001,MORNING CREEK S DR,NIGHTFALL TR,OLD SYCAMORE DR,548.7264,40.0,Major,AC Improved,21949.056,Good,1543589.312256,32.9538779,-117.0929711,32.9544687,-117.0913277
19228,SS-019082,68.47800000000001,MORNING CREEK S DR,SEPIA CT,NIGHTFALL TR,228.8,40.0,Major,AC Improved,9152.0,Fair,626710.656,32.9537969,-117.0937081,32.9538779,-117.0929711
19229,SS-019083,63.0,MORNING CREEK S DR,OLD SYCAMORE DR,SEPIA CT,190.86700000000002,40.0,Major,AC Improved,7634.68,Fair,480984.84,32.9544687,-117.0913277,32.9537969,-117.0937081
19232,SS-019086,92.32799999999999,MORNINGSIDE ST,POTOMAC ST,ALBEMARLE ST,670.8145,30.0,Residential,AC Improved,20124.435,Good,1858048.8346799999,32.6776132,-117.0678774,32.676159,-117.066551
19233,SS-019087,79.428,MORNINGSIDE ST,ALBEMARLE ST,MIDWICK ST,326.8086,30.0,Residential,AC Improved,9804.258,Good,778732.604424,32.676159,-117.066551,32.675449,-117.065903
19234,SS-019088,82.516,MORNINGSIDE ST,MIDWICK ST,CUMBERLAND ST,335.2194,30.0,Residential,AC Improved,10056.582,Good,829828.920312,32.675449,-117.065903,32.674721,-117.065231
19235,SS-019089,79.906,MORNINGSIDE ST,CUMBERLAND ST,WINCHESTER ST,658.4951,30.0,Residential,AC Improved,19754.853,Good,1578531.283818,32.674721,-117.065231,32.6733002,-117.0638925
19236,SS-019090,9.0,MORNINGSIDE ST,WINCHESTER ST,ROANOKE ST,332.6051,36.0,Residential,AC Improved,11973.7836,Poor,107764.0524,32.6733002,-117.0638925,32.672577,-117.063248
19237,SS-019091,35.29,MORNINGSIDE ST,ROANOKE ST,RANCHO HILLS DR,322.5041,36.0,Local,AC Improved,11610.1476,Poor,409722.108804,32.672577,-117.063248,32.671886,-117.062592
19238,SS-019092,83.45200000000001,MORNINGSIDE ST,RANCHO HILLS DR,CALLE ARRIBA,396.3824,50.0,Residential,AC Improved,19819.12,Good,1653945.20224,32.671886,-117.062592,32.670918,-117.062057
19239,SS-019093,83.944,MORNINGSIDE ST,CALLE ARRIBA,CALLE CASAS BONITAS,68.4333,50.0,Residential,AC Improved,3421.665,Good,287228.24676,32.670918,-117.062057,32.6707233,-117.0620411
19240,SS-019094,78.07600000000001,MORNINGSIDE ST,CALLE CASAS BONITAS,CALLE SALIDA DEL SOL,452.2117,36.0,Residential,AC Improved,16279.6212,Good,1271047.7048112,32.6707233,-117.0620411,32.669643,-117.062721
19241,SS-019095,29.26,MORNINGSIDE ST,CALLE SALIDA DEL SOL,CALLE CASAS BONITAS,818.2418,36.0,Local,AC Improved,29456.7048,Poor,861903.182448,32.669643,-117.062721,32.6707233,-117.0620411
19242,SS-019096,36.63,MORNINGSIDE ST,CALLE CASAS BONITAS,SEDGEWICK ST,252.5173,36.0,Local,AC Improved,9090.6228,Poor,332989.513164,32.6707233,-117.0620411,32.6674201,-117.062688
19243,SS-019097,35.04,MORNINGSIDE ST,SEDGEWICK ST,CALLE CUMBRE,588.3015,36.0,Residential,AC Improved,21178.854,Poor,742107.04416,32.6674201,-117.062688,32.666248,-117.061996
19244,SS-019099,59.018,MORRELL ST,FORTUNA AV,PACIFIC BEACH DR,682.5108,36.0,Residential,AC Improved,24570.3888,Fair,1450095.2061984,32.7939787,-117.2311859,32.7957852,-117.231773
19245,SS-019100,59.6,MORRELL ST,CROWN POINT DR,FORTUNA AV,201.3081,36.0,Residential,AC Improved,7247.0916,Fair,431926.65936000005,32.793442,-117.231033,32.7939787,-117.2311859
19246,SS-019101,93.17399999999999,MORRELL ST,EMERALD ST,DIAMOND ST,343.7359,40.0,Residential,AC Improved,13749.436000000002,Good,1281089.9498639998,32.803276,-117.234093,32.8041867,-117.2343629
19247,SS-019102,78.344,MORRELL ST,FELSPAR ST,EMERALD ST,353.8622,40.0,Residential,AC Improved,14154.488000000001,Good,1108919.2078719998,32.802334,-117.233803,32.803276,-117.234093
19248,SS-019103,82.508,MORRELL ST,GARNET AV,FELSPAR ST,349.9858,40.0,Residential,AC Improved,13999.431999999999,Good,1155065.135456,32.801394,-117.2335118,32.802334,-117.233803
19249,SS-019104,50.33,MORRELL ST,HORNBLEND ST,GARNET AV,349.2854,40.0,Local,AC Improved,13971.416000000001,Fair,703181.36728,32.800472,-117.233238,32.801394,-117.2335118
19250,SS-019105,77.24,MORRELL ST,BALBOA AV,HORNBLEND ST,229.9277,40.0,Residential,AC Improved,9197.108,Good,710384.62192,32.7998144,-117.2330084,32.800472,-117.233238
19251,SS-019106,48.95399999999999,MORRELL ST,THOMAS AV,GRAND AV,371.0808,40.0,Residential,AC Improved,14843.232,Fair,726635.579328,32.798496,-117.232628,32.799406,-117.2328933
19252,SS-019107,66.10600000000001,MORRELL ST,REED AV,THOMAS AV,353.1405,40.0,Residential,AC Improved,14125.62,Fair,933788.2357200001,32.797558,-117.23233,32.798496,-117.232628
19253,SS-019108,63.55,MORRELL ST,OLIVER AV,REED AV,349.9859,40.0,Residential,AC Improved,13999.436000000002,Fair,889664.1578,32.796627,-117.23204,32.797558,-117.23233
19254,SS-019109,60.983999999999995,MORRELL ST,PACIFIC BEACH DR,OLIVER AV,316.7548,40.0,Residential,AC Improved,12670.192,Fair,772678.988928,32.7957852,-117.231773,32.796627,-117.23204
19255,SS-019110,45.71,MORRISON ST,F ST,HILLTOP DR,616.0766,30.0,Local,AC Improved,18482.298,Fair,844825.84158,32.7134186,-117.1055838,32.7151207,-117.1055779
19256,SS-019111,42.7,MORRISON ST,MARKET ST,F ST,704.0719,30.0,Local,AC Improved,21122.157000000003,Fair,901916.1039,32.7115103,-117.1056293,32.7134186,-117.1055838
19257,SS-019112,78.444,MORRISON ST,J ST,MARKET ST,658.0829,36.0,Residential,AC Improved,23690.9844,Good,1858415.5802736,32.7097986,-117.1056142,32.7115103,-117.1056293
19258,SS-019113,83.37,MORROW WY,MARYLAND ST,WASHINGTON ST,456.9001,40.0,Residential,PCC Jointed Concrete,18276.004,Good,1523670.45348,32.7525369,-117.1510191,32.7520201,-117.1498024
19263,SS-019118,81.0,MOSELLE WY,AVNDA MAGNIFICA,MOSELLE ST,178.8771,36.0,Residential,AC Improved,6439.5756,Good,521605.6236,32.9132591,-117.073566,32.9135375,-117.074057
19264,SS-019121,56.0,MOTT ST,LANGE AV,GOBAT AV,252.5413,36.0,Residential,AC Improved,9091.4868,Fair,509123.2608,32.8469593,-117.2286748,32.8475716,-117.228976
19265,SS-019122,46.92,MOTT ST,NANSEN AV,LANGE AV,235.8648,36.0,Residential,AC Improved,8491.1328,Fair,398403.95097600005,32.8463691,-117.2283987,32.8469593,-117.2286748
19266,SS-019123,64.958,MOULTRIE AV,BUNKER HILL ST,BRANDYWINE ST,637.0,36.0,Residential,AC Improved,22932.0,Fair,1489616.856,32.804269,-117.209128,32.806026,-117.209106
19267,SS-019124,57.01,MOULTRIE AV,TICONDEROGA ST,BUNKER HILL ST,663.0916,36.0,Residential,PCC Jointed Concrete,23871.2976,Fair,1360902.676176,32.8024584,-117.2091496,32.804269,-117.209128
19268,SS-019125,50.312,MOUND AV,PRINCESS VIEW DR,BARCLAY AV,280.6652,40.0,Residential,AC Improved,11226.608,Fair,564833.101696,32.7972592,-117.0759063,32.7967046,-117.0753711
19269,SS-019126,46.5,MOUND AV,BARCLAY AV,CARTHAGE ST,346.1856,30.0,Residential,AC Improved,10385.568000000001,Fair,482928.912,32.7967046,-117.0753711,32.7961232,-117.074574
19270,SS-019127,45.97,MT AACHEN AV,MT ACONIA WY,MT ABBEY AV,744.6093,36.0,Residential,AC Improved,26805.9348,Fair,1232268.8227559999,32.803387,-117.181908,32.8051489,-117.1829465
19271,SS-019128,43.026,MT AACHEN AV,MT ACONIA DR,MT ACONIA WY,297.0,36.0,Residential,AC Improved,10692.0,Fair,460033.992,32.802608,-117.181633,32.803387,-117.181908
19272,SS-019129,51.858000000000004,MT AACHEN AV,MT TAMI LN,MT ACONIA DR,236.0,36.0,Residential,AC Improved,8496.0,Fair,440585.56799999997,32.801987,-117.181396,32.802608,-117.181633
19274,SS-019131,37.93,MT ABBEY AV,MT ACKERLY DR,MT ARARAT DR,565.8316,40.0,Residential,AC Improved,22633.264,Poor,858479.70352,32.809086,-117.180367,32.8105895,-117.1805283
19275,SS-019132,41.888000000000005,MT ABBEY AV,ACCOMAC AV,MT ACKERLY DR,528.2895,40.0,Residential,AC Improved,21131.58,Fair,885159.62304,32.807755,-117.180847,32.809086,-117.180367
19276,SS-019133,46.876000000000005,MT ABBEY AV,MT ACARA DR,ACCOMAC AV,235.8008,40.0,Residential,AC Improved,9432.032,Fair,442135.932032,32.807228,-117.181297,32.807755,-117.180847
19277,SS-019134,45.364,MT ABBEY AV,ACWORTH AV,MT ACARA DR,235.2044,40.0,Residential,AC Improved,9408.176,Fair,426792.496064,32.806705,-117.181763,32.807228,-117.181297
19278,SS-019135,77.024,MT ABBEY AV,MT AACHEN AV,ACWORTH AV,685.6338,40.0,Residential,AC Improved,27425.352000000003,Good,2112410.312448,32.8051489,-117.1829465,32.806705,-117.181763
19279,SS-019136,44.052,MT ABBEY AV,MT ACADIA BL,MT AACHEN AV,336.5135,40.0,Residential,AC Improved,13460.54,Fair,592963.70808,32.8048966,-117.1838658,32.8051489,-117.1829465
19280,SS-019137,93.6,MT ABERNATHY AV,JAMAR DR,CANNINGTON DR,455.202,40.0,Residential,AC Improved,18208.08,Good,1704276.2880000002,32.83160790000001,-117.1713945,32.8328108,-117.1712041
19281,SS-019138,94.376,MT ABERNATHY AV,LANA DR,JAMAR DR,448.1604,40.0,Residential,AC Improved,17926.416,Good,1691823.436416,32.8303633,-117.1714226,32.83160790000001,-117.1713945
19282,SS-019139,92.524,MT ABERNATHY AV,REDBROOK RD,LANA DR,737.4759,40.0,Residential,AC Improved,29499.036,Good,2729368.806864,32.8283814,-117.1716555,32.8303633,-117.1714226
19283,SS-019140,94.18,MT ABERNATHY AV,PRINTWOOD WY,REDBROOK RD,255.1955,40.0,Residential,AC Improved,10207.82,Good,961372.4876,32.8272707,-117.172364,32.8283814,-117.1716555
19284,SS-019141,90.66799999999999,MT ABERNATHY AV,PRINTWOOD WY,PRINTWOOD WY,198.1767,40.0,Residential,AC Improved,7927.068,Good,718731.4014239999,32.8272707,-117.172364,32.8272707,-117.172364
19285,SS-019142,94.52,MT ABERNATHY AV,BIRKDALE WY,PRINTWOOD WY,240.6512,40.0,Residential,AC Improved,9626.048,Good,909854.0569600001,32.8266661,-117.1727022,32.8272707,-117.172364
19286,SS-019143,83.58,MT ABERNATHY AV,CHANDLER DR,BIRKDALE WY,259.8866,40.0,Residential,AC Improved,10395.464,Good,868852.88112,32.826031,-117.173092,32.8266661,-117.1727022
19287,SS-019144,94.35600000000001,MT ABERNATHY AV,CASTLETON DR,CHANDLER DR,267.9439,40.0,Prime,AC Improved,10717.756000000001,Good,1011284.5851360001,32.8253974,-117.1734902,32.826031,-117.173092
19288,SS-019145,93.788,MT ABERNATHY AV,CAMBER DR,CASTLETON DR,253.18,40.0,Prime,AC Improved,10127.2,Good,949809.8336,32.824764,-117.173866,32.8253974,-117.1734902
19289,SS-019146,93.656,MT ABERNATHY AV,BAKEWELL ST,CAMBER DR,249.1304,40.0,Prime,AC Improved,9965.216,Good,933302.2696959999,32.824154,-117.174232,32.824764,-117.173866
19290,SS-019147,88.44,MT ABERNATHY AV,ABERNATHY WY,BAKEWELL ST,249.6129,40.0,Prime,AC Improved,9984.516,Good,883030.5950399999,32.8235504,-117.1746162,32.824154,-117.174232
19291,SS-019148,85.448,MT ABERNATHY AV,CHATEAU DR,ABERNATHY WY,326.4885,68.0,Prime,AC Improved,22201.217999999997,Good,1897049.675664,32.8227634,-117.1751489,32.8235504,-117.1746162
19292,SS-019149,93.316,MT ABERNATHY AV,BALBOA ARMS DR,CHATEAU DR,434.3108,70.0,Prime,AC Improved,30401.756,Good,2836970.262896,32.8216576,-117.1756723,32.8227634,-117.1751489
19293,SS-019150,86.82799999999999,MT ABERNATHY AV,BEADNELL WY,BALBOA ARMS DR,328.4417,68.0,Prime,AC Improved,22334.0356,Good,1939219.6430768,32.8208706,-117.1760182,32.8216576,-117.1756723
19294,SS-019151,67.796,MT ABERNATHY AV,BALBOA AV,BEADNELL WY,198.3481,68.0,Prime,AC Improved,13487.6708,Fair,914410.1295568001,32.8202466,-117.1762049,32.8208706,-117.1760182
19295,SS-019152,91.626,MT ABRAHAM AV,MT ADA RD,MT ALIFAN DR,304.4141,40.0,Residential,AC Improved,12176.563999999998,Good,1115689.853064,32.819199,-117.17543,32.8197067,-117.176206
19296,SS-019153,90.62,MT ABRAHAM AV,MT ADELBERT DR,MT ACKERMAN DR,255.0018,40.0,Residential,AC Improved,10200.072,Good,924330.52464,32.817787,-117.175392,32.8184901,-117.1753998
19297,SS-019154,92.44,MT ABRAHAM AV,MT AGUILAR DR,MT ADELBERT DR,257.0021,40.0,Residential,AC Improved,10280.084,Good,950290.96496,32.8171019,-117.1754155,32.817787,-117.175392
19299,SS-019156,94.42,MT ABRAHAM AV,MT ACKERMAN DR,MT ADA RD,259.9179,40.0,Residential,AC Improved,10396.716,Good,981657.9247200001,32.8184901,-117.1753998,32.819199,-117.17543
19300,SS-019157,40.968,MT ABRAHAM AV,MT AINSWORTH AV,MT AGUILAR DR,1572.497,36.0,Residential,AC Improved,56609.892,Fair,2319194.055456,32.8131921,-117.1769179,32.8171019,-117.1754155
19301,SS-019158,82.55,MT ACADIA BL,ACWORTH AV,MT ARARAT DR,1370.9126,40.0,Prime,AC Improved,54836.504,Good,4526753.4052,32.807121,-117.182411,32.8105772,-117.1811847
19302,SS-019159,65.1,MT ACADIA BL,MT ABBEY AV,ACWORTH AV,934.1705,40.0,Prime,AC Improved,37366.82,Fair,2432579.982,32.8048966,-117.1838658,32.807121,-117.182411
19303,SS-019160,65.432,MT ACADIA BL,VIA CARANCHO,MT ABBEY AV,538.8824,40.0,Prime,AC Improved,21555.296000000002,Fair,1410406.127872,32.803486,-117.184387,32.8048966,-117.1838658
19304,SS-019161,35.984,MT ACADIA BL,VIA BELLO,VIA CARANCHO,742.584,40.0,Prime,AC Improved,29703.36,Poor,1068845.70624,32.801533,-117.185059,32.803486,-117.184387
19305,SS-019162,31.068,MT ACADIA BL,VIA AQUARIO,VIA BELLO,253.162,40.0,Prime,AC Improved,10126.48,Poor,314609.48064,32.800842,-117.185097,32.801533,-117.185059
19306,SS-019163,71.52,MT ACADIA BL,MT BLANCA DR,MT ALIFAN DR,1055.4934,40.0,Prime,AC Improved,42219.736,Good,3019555.51872,32.813751,-117.18187,32.8165572,-117.1828045
19307,SS-019164,82.236,MT ACADIA BL,MT ARARAT DR,MT BLANCA DR,1181.8693,40.0,Prime,AC Improved,47274.772000000004,Good,3887688.150192,32.8105772,-117.1811847,32.813751,-117.18187
19308,SS-019165,82.98200000000001,MT ACADIA BL,SNEAD AV,VIA AQUARIO,1588.2093,40.0,Prime,AC Improved,63528.372,Good,5271711.365304,32.7983025,-117.1892022,32.800842,-117.185097
19309,SS-019166,86.904,MT ACADIA BL,COWLEY WY,SNEAD AV,2147.9544,40.0,Prime,AC Improved,85918.17599999999,Good,7466633.167103999,32.79343,-117.191673,32.7983025,-117.1892022
19310,SS-019167,73.166,MT ACARA DR,MT ABBEY AV,ACCOMAC AV,879.0621,36.0,Residential,AC Improved,31646.2356,Good,2315428.4739096,32.807228,-117.181297,32.805725,-117.1796249
19311,SS-019168,80.928,MT ACARA DR,ACCOMAC AV,MT ACLARE AV,235.0084,36.0,Residential,AC Improved,8460.3024,Good,684675.3526272,32.805725,-117.1796249,32.805725,-117.1788563
19312,SS-019169,86.87200000000001,MT ACARA DR,MT ACOMITA AV,MT ALVAREZ AV,236.0083,36.0,Residential,AC Improved,8496.2988,Good,738090.4693535999,32.805725,-117.178093,32.8057259,-117.1773174
19313,SS-019170,88.0,MT ACARA DR,MT ACLARE AV,MT ACOMITA AV,235.0087,36.0,Residential,AC Improved,8460.3132,Good,744507.5616,32.805725,-117.1788563,32.805725,-117.178093
19314,SS-019171,29.875999999999998,MT ACKERLY DR,MT ABBEY AV,MT ACLARE AV,244.0183,40.0,Residential,AC Improved,9760.732,Poor,291611.62923200004,32.809086,-117.180367,32.809086,-117.179573
19315,SS-019172,52.803999999999995,MT ACKERLY DR,MT ACLARE AV,MT ACOMITA AV,239.019,40.0,Residential,AC Improved,9560.76,Fair,504846.37103999994,32.809086,-117.179573,32.8090834,-117.1788001
19316,SS-019173,44.931999999999995,MT ACKERLY DR,MT ALVAREZ AV,MT ACOMITA AV,122.6662,30.0,Residential,AC Improved,3679.986,Fair,165349.130952,32.809037,-117.178408,32.8090834,-117.1788001
19317,SS-019174,84.3,MT ACKERMAN DR,MT ABRAHAM AV,MT ALBERTINE AV,1195.015,36.0,Residential,AC Improved,43020.54,Good,3626631.522,32.8184901,-117.1753998,32.8185062,-117.1715168
19318,SS-019175,74.02,MT ACLARE AV,MT ACARA DR,MT ACKERLY DR,1274.4754,36.0,Residential,AC Improved,45881.1144,Good,3396120.087888,32.805725,-117.1788563,32.809086,-117.179573
19321,SS-019178,72.49600000000001,MT ACOMITA AV,MT ACARA DR,MT ACKERLY DR,1267.685,36.0,Residential,AC Improved,45636.66,Good,3308475.30336,32.805725,-117.178093,32.8090834,-117.1788001
19324,SS-019181,93.256,MT ACONIA WY,MT AACHEN AV,MT CAROL DR,249.0,30.0,Residential,AC Improved,7470.0,Good,696622.32,32.803387,-117.181908,32.803585,-117.181129
19326,SS-019183,79.42399999999999,MT ADA RD,MT RIAS PL,MT ALBERTINE AV,593.0006,40.0,Residential,AC Improved,23720.023999999998,Good,1883939.186176,32.819359,-117.173439,32.8193624,-117.1715142
19327,SS-019184,84.4,MT ADA RD,MT ABRAHAM AV,MT RIAS PL,622.6493,40.0,Residential,AC Improved,24905.972,Good,2102064.0368,32.819199,-117.17543,32.819359,-117.173439
19328,SS-019185,91.0,MT ADELBERT DR,MT ABRAHAM AV,MT ALBERTINE AV,1105.2228,36.0,Residential,AC Improved,39788.0208,Good,3620709.8928,32.817787,-117.175392,32.8177233,-117.1718308
19329,SS-019186,88.44,MT AGUILAR DR,MT ALIFAN DR,MT ABRAHAM AV,850.8584,40.0,Prime,AC Improved,34034.336,Good,3009996.67584,32.8180813,-117.1776534,32.8171019,-117.1754155
19330,SS-019187,80.24,MT AGUILAR DR,MT ABRAHAM AV,MT AINSWORTH AV,256.0177,40.0,Prime,AC Improved,10240.708,Good,821714.40992,32.8171019,-117.1754155,32.8171139,-117.1745761
19331,SS-019189,44.001999999999995,MT AGUILAR DR,MT AINSWORTH AV,MT ALBERTINE AV,797.0509,40.0,Prime,AC Improved,31882.036,Fair,1402873.3480719998,32.8171139,-117.1745761,32.8170819,-117.1719618
19332,SS-019190,57.562,MT AGUILAR DR,MT ALBERTINE AV,ARVERNE ST,443.3528,40.0,Prime,AC Improved,17734.112,Fair,1020810.954944,32.8170819,-117.1719618,32.8168767,-117.1705977
19333,SS-019191,44.852,MT AINSWORTH AV,MT ACRE WY,MT AGUILAR DR,256.9998,36.0,Residential,AC Improved,9251.9928,Fair,414970.38106559997,32.816372,-117.174553,32.8171139,-117.1745761
19334,SS-019192,84.4,MT AINSWORTH AV,MT AINSWORTH WY,MT ACRE WY,198.5784,36.0,Residential,AC Improved,7148.8224,Good,603360.6105600001,32.815845,-117.174713,32.816372,-117.174553
19335,SS-019193,79.6,MT AINSWORTH AV,MT AINSWORTH CT,MT AINSWORTH WY,389.0236,36.0,Residential,AC Improved,14004.8496,Good,1114786.02816,32.8149834,-117.1754371,32.815845,-117.174713
19336,SS-019194,50.536,MT AINSWORTH AV,MT ABRAHAM AV,MT AINSWORTH CT,1022.2441,36.0,Residential,AC Improved,36800.7876,Fair,1859764.6021536,32.8131921,-117.1769179,32.8149834,-117.1754371
19339,SS-019197,37.162,MT ALADIN AV,MT ARARAT DR,MT BLANCA DR,1127.9125,36.0,Local,AC Improved,40604.85,Poor,1508957.4357,32.8105772,-117.181969,32.8136106,-117.1826307
19340,SS-019198,50.312,MT ALADIN AV,ACWORTH AV,MT ARARAT DR,1233.9463,36.0,Local,AC Improved,44422.0668,Fair,2234963.0248416,32.8075144,-117.1829732,32.8105772,-117.181969
19341,SS-019199,59.092,MT ALBERTINE AV,MT ADA RD,BALBOA AV,335.006,40.0,Residential,AC Improved,13400.24,Fair,791846.98208,32.8193624,-117.1715142,32.8203555,-117.1715234
19342,SS-019200,40.558,MT ALBERTINE AV,MT ALBERTINE CT,MT ACKERMAN DR,130.2782,40.0,Residential,AC Improved,5211.128,Fair,211352.929424,32.8181464,-117.1715174,32.8185062,-117.1715168
19343,SS-019201,67.0,MT ALBERTINE AV,MT ADELBERT DR,MT ALBERTINE CT,199.56,40.0,Residential,AC Improved,7982.4,Fair,534820.8,32.8177233,-117.1718308,32.8181464,-117.1715174
19344,SS-019202,44.618,MT ALBERTINE AV,MT AGUILAR DR,MT ADELBERT DR,228.7919,40.0,Residential,AC Improved,9151.676,Fair,408329.47976799996,32.8170819,-117.1719618,32.8177233,-117.1718308
19345,SS-019203,45.428000000000004,MT ALBERTINE AV,MT ALBERTINE WY,MT AGUILAR DR,301.3994,40.0,Residential,AC Improved,12055.976,Fair,547678.8777279999,32.8163368,-117.1722645,32.8170819,-117.1719618
19346,SS-019204,73.98,MT ALBERTINE AV,GRACE CT,MT ALBERTINE WY,459.3367,40.0,Residential,AC Improved,18373.468,Good,1359269.16264,32.8154301,-117.1732404,32.8163368,-117.1722645
19347,SS-019205,59.153999999999996,MT ALBERTINE AV,SALIZAR CT,GRACE CT,826.3953,40.0,Residential,AC Improved,33055.812000000005,Fair,1955383.503048,32.81343620000001,-117.1740699,32.8154301,-117.1732404
19349,SS-019207,35.8,MT ALBERTINE AV,MT ACKERMAN DR,MT ADA RD,316.0066,40.0,Residential,AC Improved,12640.264,Poor,452521.4512,32.8185062,-117.1715168,32.8193624,-117.1715142
19351,SS-019209,63.053999999999995,MT ALBERTINE WY,GRACE CT,MT ALBERTINE AV,349.7129,30.0,Residential,AC Improved,10491.386999999999,Fair,661523.915898,32.8154334,-117.1720714,32.8163368,-117.1722645
19353,SS-019211,63.13399999999999,MT ALIFAN DR,MT ABRAHAM AV,BALBOA AV,232.4898,64.0,Prime,AC Improved,14879.3472,Fair,939392.7061248001,32.8197067,-117.176206,32.8202466,-117.1762049
19354,SS-019212,59.736000000000004,MT ALIFAN DR,MT AGUILAR DR,MT ABRAHAM AV,737.3415,64.0,Prime,AC Improved,47189.856,Fair,2818933.238016,32.8180813,-117.1776534,32.8197067,-117.176206
19355,SS-019213,60.674,MT ALIFAN DR,GENESEE AV,MT AGUILAR DR,1031.4822,64.0,Prime,AC Improved,66014.8608,Fair,4005385.6641792,32.8172324,-117.1809123,32.8180813,-117.1776534
19356,SS-019215,67.41199999999999,MT ALIFAN DR,MT ACADIA BL,GENESEE AV,659.9471,40.0,Prime,AC Improved,26397.884,Fair,1779534.1562080001,32.8165572,-117.1828045,32.8172324,-117.1809123
19357,SS-019216,77.382,MT ALIFAN DR,MT EVEREST BL,MT ACADIA BL,750.2784,40.0,Prime,AC Improved,30011.136000000002,Good,2322321.725952,32.8162315,-117.1851886,32.8165572,-117.1828045
19358,SS-019217,79.41,MT ALIFAN DR,MT BROSS AV,MT EVEREST BL,264.0475,40.0,Residential,AC Improved,10561.9,Good,838720.479,32.816203,-117.1860406,32.8162315,-117.1851886
19359,SS-019218,66.3,MT ALIFAN DR,MT BOLANAS CT,MT BROSS AV,374.3347,40.0,Residential,AC Improved,14973.388,Fair,992735.6244,32.816063,-117.187233,32.816203,-117.1860406
19360,SS-019219,42.391999999999996,MT ALIFAN DR,MT CULEBRA AV,MT BOLANAS CT,188.1621,40.0,Residential,AC Improved,7526.484,Fair,319062.70972800005,32.8158544,-117.1878016,32.816063,-117.187233
19361,SS-019220,46.456,MT ALIFAN DR,MT BARNARD AV,MT CULEBRA AV,494.1063,40.0,Residential,AC Improved,19764.252,Fair,918168.090912,32.815308,-117.189262,32.8158544,-117.1878016
19362,SS-019221,48.088,MT ALIFAN DR,MT BAGOT AV,MT BARNARD AV,529.5797,40.0,Residential,AC Improved,21183.188,Fair,1018657.144544,32.81461,-117.190758,32.815308,-117.189262
19363,SS-019222,46.321999999999996,MT ALIFAN DR,MT ALIFAN CT,MT BAGOT AV,1170.84,40.0,Residential,AC Improved,46833.6,Fair,2169426.0192,32.8118959,-117.192642,32.81461,-117.190758
19364,SS-019223,42.312,MT ALIFAN DR,MT ALIFAN WY,MT ALIFAN CT,252.8815,40.0,Residential,AC Improved,10115.26,Fair,427996.88112,32.811687,-117.193428,32.8118959,-117.192642
19365,SS-019224,44.838,MT ALIFAN DR,MT TERMINUS DR,MT ALIFAN WY,251.3721,40.0,Residential,AC Improved,10054.884,Fair,450840.888792,32.811497,-117.194206,32.811687,-117.193428
19368,SS-019228,59.916000000000004,MT ALMAGOSA DR,MT AUGUSTUS AV,MT BLACKBURN AV,782.1389,36.0,Residential,AC Improved,28157.0004,Fair,1687054.8359663999,32.8093382,-117.1895646,32.8095166,-117.1870236
19369,SS-019229,35.108000000000004,MT ALMAGOSA DR,MT ALMAGOSA PL,MT AUGUSTUS AV,894.1657,36.0,Residential,AC Improved,32189.9652,Poor,1130125.2982416,32.809498,-117.192253,32.8093382,-117.1895646
19371,SS-019231,67.274,MT ALVAREZ AV,MT ACARA DR,MT ACKERLY DR,1292.3373,40.0,Residential,AC Improved,51693.492,Fair,3477627.980808,32.8057259,-117.1773174,32.809037,-117.178408
19373,SS-019233,65.48,MT ANTERO DR,MT AUGUSTUS AV,MT BLACKBURN AV,741.0472,36.0,Residential,AC Improved,26677.6992,Fair,1746855.743616,32.808456,-117.189301,32.8088273,-117.1869358
19374,SS-019234,80.97399999999999,MT ARARAT DR,CAMEO LN,MT ALADIN AV,239.019,40.0,Residential,AC Improved,9560.76,Good,774172.98024,32.8105758,-117.1827453,32.8105772,-117.181969
19375,SS-019235,71.824,MT ARARAT DR,MT ALADIN AV,MT ACADIA BL,244.00799999999998,40.0,Residential,AC Improved,9760.32,Good,701025.22368,32.8105772,-117.181969,32.8105772,-117.1811847
19376,SS-019236,35.53,MT ARARAT DR,MT ACADIA BL,MT ABBEY AV,195.0102,40.0,Residential,AC Improved,7800.408,Poor,277148.49624,32.8105772,-117.1811847,32.8105895,-117.1805283
19377,SS-019237,74.528,MT ARARAT DR,CANNING AV,CAMEO LN,278.4103,40.0,Residential,AC Improved,11136.412,Good,829974.5135359999,32.8105306,-117.1836588,32.8105758,-117.1827453
19378,SS-019238,75.316,MT ARARAT DR,MT ARIANE DR,CANNING AV,482.1048,40.0,Residential,AC Improved,19284.192,Good,1452408.204672,32.810387,-117.185211,32.8105306,-117.1836588
19379,SS-019239,45.09,MT ARARAT DR,MT EVEREST BL,MT ARIANE DR,327.3775,40.0,Residential,AC Improved,13095.1,Fair,590458.059,32.810302,-117.1862599,32.810387,-117.185211
19380,SS-019240,36.8,MT ARARAT DR,MT BLACKBURN AV,MT EVEREST BL,260.1098,40.0,Residential,AC Improved,10404.392,Poor,382881.6256,32.8102287,-117.1871033,32.810302,-117.1862599
19381,SS-019241,48.513999999999996,MT ARARAT DR,MT BRUNDAGE AV,MT BLACKBURN AV,257.1224,40.0,Residential,AC Improved,10284.896,Fair,498961.44454399997,32.810154,-117.18795,32.8102287,-117.1871033
19383,SS-019243,44.776,MT ARARAT DR,MT AUGUSTUS AV,MT BRUNDAGE AV,486.9943,40.0,Residential,AC Improved,19479.772,Fair,872226.2710719999,32.8100361,-117.1895154,32.810154,-117.18795
19386,SS-019246,35.955999999999996,MT ARIANE DR,MT ARIANE CT,MT ARARAT DR,1785.4463,40.0,Residential,AC Improved,71417.852,Poor,2567900.286512,32.806095,-117.1865706,32.810387,-117.185211
19387,SS-019247,44.122,MT ARIANE DR,MT BURNHAM DR,MT ARIANE CT,717.7999,40.0,Residential,AC Improved,28711.996,Fair,1266830.687512,32.804619,-117.188026,32.806095,-117.1865706
19388,SS-019248,46.336000000000006,MT ARIANE DR,MT ARIANE TR,MT BURNHAM DR,903.2787,40.0,Residential,AC Improved,36131.148,Fair,1674172.873728,32.8035391,-117.1905748,32.804619,-117.188026
19392,SS-019252,40.008,MT ARMET DR,MT HUKEE AV,MT PUTMAN AV,207.6041,36.0,Residential,AC Improved,7473.7476,Fair,299009.6939808,32.815613,-117.196083,32.815166,-117.195686
19395,SS-019255,76.392,MT ARMOUR DR,MT ARMOUR PL,MT ARMOUR CT,450.2042,36.0,Residential,AC Improved,16207.3512,Good,1238111.9728704,32.8053915,-117.1892372,32.8054197,-117.1906511
19396,SS-019256,69.938,MT ARMOUR DR,MT EVEREST BL,MT ARMOUR CT,260.475,36.0,Residential,AC Improved,9377.1,Fair,655815.6198,32.8052006,-117.1914348,32.8054197,-117.1906511
19397,SS-019257,59.361999999999995,MT ARMOUR PL,MT ARMOUR DR,MT EVEREST BL,328.8747,36.0,Residential,AC Improved,11839.4892,Fair,702815.7578904,32.8053915,-117.1892372,32.8061935,-117.189154
19399,SS-019259,29.48,MT ASHMUN DR,MT BLACKBURN AV,MT EVEREST BL,265.2773,36.0,Residential,AC Improved,9549.9828,Poor,281533.492944,32.8081266,-117.1868533,32.8081977,-117.1859991
19400,SS-019260,55.3,MT ASHMUN DR,MT ASHMUN CT,MT AUGUSTUS AV,308.1576,36.0,Residential,AC Improved,11093.6736,Fair,613480.15008,32.8074669,-117.1898368,32.8077541,-117.1889062
19401,SS-019261,70.828,MT ASHMUN DR,MT ASHMUN PL,MT ASHMUN CT,347.7038,36.0,Residential,AC Improved,12517.3368,Good,886577.9308704,32.8073056,-117.1909618,32.8074669,-117.1898368
19403,SS-019263,58.83,MT ASHMUN DR,MT AUGUSTUS AV,MT BLACKBURN AV,647.6398,36.0,Residential,AC Improved,23315.0328,Fair,1371623.379624,32.8077541,-117.1889062,32.8081266,-117.1868533
19405,SS-019265,50.816,MT AUGUSTUS AV,MT ALMAGOSA DR,MT ARARAT DR,264.4259,36.0,Residential,AC Improved,9519.3324,Fair,483734.3952384,32.8093382,-117.1895646,32.8100361,-117.1895154
19406,SS-019266,53.446000000000005,MT AUGUSTUS AV,MT ANTERO DR,MT ALMAGOSA DR,325.2085,36.0,Residential,AC Improved,11707.506000000001,Fair,625719.365676,32.808456,-117.189301,32.8093382,-117.1895646
19407,SS-019267,50.668,MT AUGUSTUS AV,MT ASHMUN DR,MT ANTERO DR,285.0297,36.0,Residential,AC Improved,10261.0692,Fair,519907.85422559996,32.8077541,-117.1889062,32.808456,-117.189301
19408,SS-019268,54.966,MT BAGOT AV,MT ALIFAN DR,MT BIGELOW DR,247.8144,36.0,Residential,AC Improved,8921.3184,Fair,490369.1871744,32.81461,-117.190758,32.81506,-117.19136
19411,SS-019271,61.608000000000004,MT BIGELOW DR,MT CULEBRA AV,MT BROSS AV,687.4105,36.0,Residential,AC Improved,24746.778,Fair,1524599.499024,32.8165076,-117.1881305,32.8170288,-117.1860587
19412,SS-019272,52.66,MT BIGELOW DR,MT BAGOT AV,MT CULEBRA AV,1132.857,36.0,Residential,AC Improved,40782.852,Fair,2147624.98632,32.81506,-117.19136,32.8165076,-117.1881305
19413,SS-019273,43.9,MT BIGELOW DR,MT BIGELOW WY,MT BAGOT AV,481.7098,36.0,Residential,AC Improved,17341.5528,Fair,761294.16792,32.813896,-117.192101,32.81506,-117.19136
19414,SS-019274,44.766000000000005,MT BIGELOW DR,MT BIGELOW CT,MT BIGELOW WY,373.9572,36.0,Residential,AC Improved,13462.4592,Fair,602660.4485472,32.812962,-117.192612,32.813896,-117.192101
19415,SS-019275,52.553999999999995,MT BIGELOW DR,MT TERMINUS DR,MT BIGELOW CT,666.6847,36.0,Residential,AC Improved,24000.6492,Fair,1261330.1180568,32.8121643,-117.1944038,32.812962,-117.192612
19418,SS-019278,68.23,MT BLACKBURN AV,MT ARARAT DR,MT BLANCA DR,1294.445,36.0,Residential,AC Improved,46600.02,Fair,3179519.3646,32.8102287,-117.1871033,32.813492,-117.185944
19419,SS-019279,56.98,MT BLACKBURN AV,MT ALMAGOSA DR,MT ARARAT DR,260.019,36.0,Residential,AC Improved,9360.684000000001,Fair,533371.77432,32.8095166,-117.1870236,32.8102287,-117.1871033
19420,SS-019280,39.358000000000004,MT BLACKBURN AV,MT ANTERO DR,MT ALMAGOSA DR,257.0313,36.0,Residential,AC Improved,9253.1268,Poor,364184.5645944,32.8088273,-117.1869358,32.8095166,-117.1870236
19421,SS-019281,35.442,MT BLACKBURN AV,MT ASHMUN DR,MT ANTERO DR,257.2176,36.0,Residential,AC Improved,9259.8336,Poor,328187.0224512,32.8081266,-117.1868533,32.8088273,-117.1869358
19422,SS-019282,53.896,MT BLACKBURN AV,MT EVEREST BL,MT ASHMUN DR,370.5077,36.0,Residential,AC Improved,13338.2772,Fair,718879.7879712,32.8071152,-117.1866811,32.8081266,-117.1868533
19423,SS-019283,37.908,MT BLANCA DR,MT ALADIN AV,MT ACADIA BL,240.4702,36.0,Residential,AC Improved,8656.9272,Poor,328166.79629759997,32.8136106,-117.1826307,32.813751,-117.18187
19424,SS-019284,32.68,MT BLANCA DR,CANNING AV,MT ALADIN AV,357.0731,36.0,Residential,AC Improved,12854.6316,Poor,420089.360688,32.8135422,-117.1837789,32.8136106,-117.1826307
19425,SS-019285,41.26,MT BLANCA DR,MT EVEREST BL,CANNING AV,401.0447,36.0,Residential,AC Improved,14437.6092,Fair,595695.755592,32.813511,-117.1850866,32.8135422,-117.1837789
19426,SS-019286,40.97,MT BLANCA DR,MT BLACKBURN AV,MT EVEREST BL,260.0482,36.0,Residential,AC Improved,9361.7352,Fair,383550.291144,32.813492,-117.185944,32.813511,-117.1850866
19427,SS-019287,38.284,MT BLANCA DR,MT BRUNDAGE AV,MT BLACKBURN AV,259.0307,36.0,Residential,AC Improved,9325.1052,Poor,357002.32747679995,32.813473,-117.1867699,32.813492,-117.185944
19429,SS-019289,24.934,MT BROSS AV,MT ALIFAN DR,MT BIGELOW DR,387.1291,36.0,Residential,AC Improved,13936.6476,Poor,347496.37125840003,32.816203,-117.1860406,32.8170288,-117.1860587
19432,SS-019292,32.522,MT BRUNDAGE AV,MT ARARAT DR,MT BLANCA DR,1319.9847,40.0,Residential,AC Improved,52799.388,Poor,1717141.6965360001,32.810154,-117.18795,32.813473,-117.1867699
19434,SS-019294,73.63,MT BURNHAM DR,MT BURNHAM PL,MT ABBEY AV,327.1871,40.0,Residential,AC Improved,13087.483999999999,Good,963631.4469200001,32.80452,-117.186737,32.8048966,-117.1838658
19436,SS-019296,83.696,MT BURNHAM DR,MT ARIANE DR,MT BURNHAM CT,408.024,37.0,Residential,AC Improved,15096.888,Good,1263549.138048,32.804619,-117.188026,32.805069,-117.184898
19437,SS-019297,79.6,MT BURNHAM DR,MT BURNHAM CT,MT BURNHAM PL,788.6332,40.0,Residential,AC Improved,31545.327999999998,Good,2511008.1088,32.805069,-117.184898,32.80452,-117.186737
19440,SS-019300,97.6,MT CARMEL DR,ALAQUINAS DR,PADRE TULLIO DR,184.0679,36.0,Residential,AC Improved,6626.4444,Good,646740.97344,32.5608169,-117.0428665,32.5608124,-117.0434687
19441,SS-019301,49.02,MT CAROL DR,MT ACONIA WY,ACWORTH AV,957.8541,36.0,Residential,AC Improved,34482.7476,Fair,1690344.2873520001,32.803585,-117.181129,32.805828,-117.181198
19442,SS-019303,57.324,MT CAROL DR,TAMRES DR,MT ACONIA WY,1690.0952,36.0,Residential,AC Improved,60843.4272,Fair,3487788.6208128,32.799061,-117.180656,32.803585,-117.181129
19444,SS-019305,72.672,MT CASAS DR,MT CULEBRA AV,MT CASTLE AV,982.8293,36.0,Residential,AC Improved,35381.8548,Good,2571270.1520256,32.817394,-117.188583,32.818481,-117.185661
19445,SS-019306,82.22,MT CASAS DR,MT DURBAN DR,MT CASAS CT,127.9143,36.0,Residential,AC Improved,4604.9148,Good,378616.094856,32.816677,-117.191887,32.816677,-117.191887
19446,SS-019307,76.748,MT CASAS DR,MT CASAS CT,MT CULEBRA AV,1067.9809,36.0,Residential,AC Improved,38447.3124,Good,2950754.3320752,32.816677,-117.191887,32.817394,-117.188583
19447,SS-019308,64.236,MT CASTLE AV,MT ETNA DR,MT HARRIS DR,810.1784,36.0,Residential,AC Improved,29166.4224,Fair,1873534.3092863997,32.820927,-117.185303,32.823154,-117.185379
19448,SS-019309,53.056000000000004,MT CASTLE AV,MT CASAS DR,MT ETNA DR,961.818,36.0,Residential,AC Improved,34625.448,Fair,1837087.769088,32.818481,-117.185661,32.820927,-117.185303
19449,SS-019310,64.304,MT CERVIN DR,MT ST HELENS DR,DIANE AV,246.5644,36.0,Residential,AC Improved,8876.3184,Fair,570782.7783936,32.8322257,-117.1868316,32.832722,-117.18737
19450,SS-019311,75.914,MT CERVIN DR,BOXWOOD DR,MT ST HELENS DR,729.2983,36.0,Residential,AC Improved,26254.7388,Good,1993102.2412632,32.830475,-117.185677,32.8322257,-117.1868316
19452,SS-019313,66.6,MT CRESTI DR,MT ST HELENS DR,DIANE AV,273.1302,36.0,Residential,AC Improved,9832.6872,Fair,654856.96752,32.831005,-117.189362,32.831654,-117.189796
19453,SS-019314,79.546,MT CULEBRA AV,MT DURBAN DR,MT DAVIS AV,521.9605,36.0,Residential,AC Improved,18790.578,Good,1494715.3175879999,32.818001,-117.188904,32.8192774,-117.1894421
19454,SS-019315,79.278,MT CULEBRA AV,MT CASAS DR,MT DURBAN DR,240.3083,36.0,Residential,AC Improved,8651.0988,Good,685841.8106664,32.817394,-117.188583,32.818001,-117.188904
19455,SS-019316,22.87,MT CULEBRA AV,BALBOA AV,MT CASAS DR,174.003,36.0,Residential,AC Improved,6264.108,Poor,143260.14995999998,32.8168994,-117.1883184,32.817394,-117.188583
19456,SS-019317,43.70399999999999,MT CULEBRA AV,MT BIGELOW DR,BALBOA AV,179.6273,36.0,Residential,AC Improved,6466.5828,Fair,282615.5346912,32.8165076,-117.1881305,32.8168994,-117.1883184
19457,SS-019318,14.23,MT CULEBRA AV,MT ALIFAN DR,MT BIGELOW DR,257.0991,36.0,Residential,AC Improved,9255.5676,Poor,131706.726948,32.8158544,-117.1878016,32.8165076,-117.1881305
19458,SS-019319,55.06,MT DAVIS AV,MT ELBRUS DR,MT ETNA DR,259.8557,36.0,Residential,AC Improved,9354.8052,Fair,515075.574312,32.820694,-117.188171,32.821316,-117.187752
19459,SS-019320,76.75,MT DAVIS AV,MT CULEBRA AV,MT ELBRUS DR,657.1925,36.0,Residential,AC Improved,23658.93,Good,1815822.8775,32.8192774,-117.1894421,32.820694,-117.188171
19460,SS-019321,76.812,MT DAVIS AV,MT FOSTER AV,MT CULEBRA AV,500.8164,36.0,Residential,AC Improved,18029.3904,Good,1384873.5354048,32.81929,-117.190697,32.8192774,-117.1894421
19461,SS-019322,53.416000000000004,MT DURBAN DR,MT CULEBRA AV,MT EVEREST BL,979.0248,36.0,Residential,AC Improved,35244.8928,Fair,1882641.1938048,32.818001,-117.188904,32.819077,-117.185966
19462,SS-019323,88.708,MT DURBAN DR,MT CASAS DR,MT CULEBRA AV,1057.8051,36.0,Residential,AC Improved,38080.9836,Good,3378087.8931887997,32.816677,-117.191887,32.818001,-117.188904
19464,SS-019325,76.07,MT ELBRUS DR,MT FORAKER AV,MT ELBRUS CT,160.3778,36.0,Residential,AC Improved,5773.6008,Good,439197.81285600003,32.8215945,-117.1900927,32.821381,-117.1896134
19466,SS-019327,74.018,MT ELBRUS DR,MT ELBRUS CT,MT FOSTER AV,255.7596,36.0,Residential,AC Improved,9207.3456,Good,681509.3066208,32.821381,-117.1896134,32.821045,-117.188904
19467,SS-019328,79.046,MT ELBRUS DR,MT FOSTER AV,MT DAVIS AV,259.3567,36.0,Residential,AC Improved,9336.8412,Good,738039.9494952,32.821045,-117.188904,32.820694,-117.188171
19468,SS-019329,90.464,MT ETNA DR,MT FORAKER AV,MT DAVIS AV,679.0914,40.0,Prime,AC Improved,27163.656000000003,Good,2457332.976384,32.822231,-117.189682,32.821316,-117.187752
19469,SS-019330,94.10799999999999,MT ETNA DR,MT CASTLE AV,GENESEE AV,751.2184,40.0,Prime,AC Improved,30048.736,Good,2827826.447488,32.820927,-117.185303,32.8213478,-117.1830275
19470,SS-019331,88.33200000000001,MT ETNA DR,MT EVEREST BL,MT CASTLE AV,257.0488,40.0,Prime,AC Improved,10281.952,Good,908225.384064,32.820908,-117.186127,32.820927,-117.185303
19471,SS-019332,92.24,MT ETNA DR,MT DAVIS AV,MT EVEREST BL,526.6821,40.0,Prime,AC Improved,21067.284,Good,1943246.27616,32.821316,-117.187752,32.820908,-117.186127
19472,SS-019333,96.28399999999999,MT ETNA DR,MT HERBERT AV,MT FORAKER AV,1419.0829999999999,40.0,Prime,AC Improved,56763.32,Good,5465399.5028800005,32.824142,-117.19371,32.822231,-117.189682
19473,SS-019334,85.25200000000001,MT EVEREST BL,MT HAY DR,MT HARRIS DR,246.8309,40.0,Residential,AC Improved,9873.235999999999,Good,841713.115472,32.823009,-117.186188,32.823551,-117.185707
19474,SS-019335,75.664,MT EVEREST BL,MT GAYWAS DR,MT HAY DR,249.5728,40.0,Residential,AC Improved,9982.912,Good,755347.053568,32.822327,-117.18618,32.823009,-117.186188
19475,SS-019336,76.52199999999999,MT EVEREST BL,MT FRISSELL DR,MT GAYWAS DR,257.0309,40.0,Residential,AC Improved,10281.235999999999,Good,786740.741192,32.821621,-117.186157,32.822327,-117.18618
19476,SS-019337,67.434,MT EVEREST BL,MT ETNA DR,MT FRISSELL DR,259.0484,40.0,Residential,AC Improved,10361.936,Fair,698746.792224,32.820908,-117.186127,32.821621,-117.186157
19477,SS-019338,88.03200000000001,MT EVEREST BL,MT DURBAN DR,MT ETNA DR,670.8582,40.0,Prime,AC Improved,26834.327999999998,Good,2362279.562496,32.819077,-117.185966,32.820908,-117.186127
19478,SS-019339,79.88,MT EVEREST BL,MT CASAS DR,MT DURBAN DR,236.4846,40.0,Prime,AC Improved,9459.384,Good,755615.59392,32.818481,-117.185661,32.819077,-117.185966
19479,SS-019340,79.964,MT EVEREST BL,BALBOA AV,MT CASAS DR,179.6273,40.0,Prime,AC Improved,7185.092,Good,574548.696688,32.8180993,-117.1854502,32.818481,-117.185661
19480,SS-019341,77.234,MT EVEREST BL,MT ALIFAN DR,BALBOA AV,673.8517,40.0,Prime,AC Improved,26954.068,Good,2081770.487912,32.8162315,-117.1851886,32.8180993,-117.1854502
19481,SS-019342,83.21600000000001,MT EVEREST BL,MT ARARAT DR,MT BLANCA DR,1281.8124,40.0,Residential,AC Improved,51272.496,Good,4266692.027136,32.810302,-117.1862599,32.813511,-117.1850866
19482,SS-019343,85.616,MT EVEREST BL,MT ASHMUN DR,MT ARARAT DR,772.7465,40.0,Residential,AC Improved,30909.86,Good,2646378.57376,32.8081977,-117.1859991,32.810302,-117.1862599
19483,SS-019344,51.508,MT EVEREST BL,MT BLACKBURN AV,MT ASHMUN DR,508.0584,36.0,Residential,AC Improved,18290.1024,Fair,942086.5944192,32.8071152,-117.1866811,32.8081977,-117.1859991
19484,SS-019345,51.978,MT EVEREST BL,MT ARMOUR PL,MT BLACKBURN AV,832.3722,36.0,Residential,AC Improved,29965.3992,Fair,1557541.5196176001,32.8061935,-117.189154,32.8071152,-117.1866811
19485,SS-019346,78.868,MT EVEREST BL,MT ARMOUR DR,MT ARMOUR PL,1009.4516,36.0,Residential,AC Improved,36340.2576,Good,2866083.4363968,32.8052006,-117.1914348,32.8061935,-117.189154
19486,SS-019347,84.58200000000001,MT EVEREST BL,MT BLANCA DR,MT ALIFAN DR,982.1305,40.0,Residential,AC Improved,39285.22,Good,3322822.47804,32.813511,-117.1850866,32.8162315,-117.1851886
19487,SS-019348,71.256,MT FORAKER AV,MT LONGS DR,MT LA PLATTA DR,226.3662,36.0,Residential,AC Improved,8149.1832,Good,580678.1980991999,32.82555,-117.187469,32.826015,-117.186989
19488,SS-019349,58.312,MT FORAKER AV,GENESEE AV,MT LONGS DR,180.6019,36.0,Residential,AC Improved,6501.6684,Fair,379125.2877408,32.8250798,-117.1877852,32.82555,-117.187469
19489,SS-019350,49.41,MT FORAKER AV,MT HARRIS DR,GENESEE AV,181.835,36.0,Residential,AC Improved,6546.06,Fair,323440.8246,32.82468,-117.188049,32.8250798,-117.1877852
19490,SS-019351,49.0,MT FORAKER AV,MT HAY DR,MT HARRIS DR,255.7596,36.0,Residential,AC Improved,9207.3456,Fair,451159.9344,32.824066,-117.188454,32.82468,-117.188049
19491,SS-019352,49.714,MT FORAKER AV,MT GAYWAS DR,MT HAY DR,256.2576,36.0,Residential,AC Improved,9225.2736,Fair,458625.25175040006,32.823456,-117.188873,32.824066,-117.188454
19492,SS-019353,50.396,MT FORAKER AV,MT FRISSELL DR,MT GAYWAS DR,254.3956,36.0,Residential,AC Improved,9158.2416,Fair,461538.7436736,32.8228494,-117.1892658,32.823456,-117.188873
19493,SS-019354,63.646,MT FORAKER AV,MT ETNA DR,MT FRISSELL DR,256.2576,36.0,Residential,AC Improved,9225.2736,Fair,587151.7635455999,32.822231,-117.189682,32.8228494,-117.1892658
19494,SS-019355,68.64,MT FORAKER AV,MT ELBRUS DR,MT ETNA DR,260.1113,36.0,Residential,AC Improved,9364.0068,Fair,642745.426752,32.8215945,-117.1900927,32.822231,-117.189682
19495,SS-019356,39.56,MT FORDE AV,MT HERBERT AV,MT VOSS DR,251.7938,36.0,Residential,AC Improved,9064.5768,Poor,358594.658208,32.818829,-117.197144,32.8182287,-117.196743
19496,SS-019358,69.044,MT FOSTER AV,MT DAVIS AV,MT ELBRUS DR,854.5649,36.0,Residential,AC Improved,30764.3364,Fair,2124092.8424016004,32.81929,-117.190697,32.821045,-117.188904
19498,SS-019360,45.24,MT FRISSELL DR,MT GAYWAS DR,MT LINDSEY AV,249.4018,36.0,Residential,AC Improved,8978.4648,Fair,406185.747552,32.825916,-117.192322,32.825268,-117.194794
19499,SS-019361,60.93,MT FRISSELL DR,MT HERBERT AV,MT FORAKER AV,1346.4042,36.0,Residential,AC Improved,48470.5512,Fair,2953310.684616,32.824974,-117.192703,32.8228494,-117.1892658
19500,SS-019362,79.74600000000001,MT FRISSELL DR,MT FORAKER AV,MT EVEREST BL,1065.1181,36.0,Residential,AC Improved,38344.2516,Good,3057800.6880936,32.8228494,-117.1892658,32.821621,-117.186157
19501,SS-019363,65.344,MT GAYWAS DR,MT FRISSELL DR,MT HENRY AV,636.3927,36.0,Residential,AC Improved,22910.1372,Fair,1497040.0051968,32.825916,-117.192322,32.825916,-117.192322
19502,SS-019364,29.85,MT GAYWAS DR,MT HENRY AV,MT HERBERT AV,260.8637,36.0,Residential,AC Improved,9391.0932,Poor,280324.13201999996,32.825916,-117.192322,32.825268,-117.191963
19503,SS-019365,76.296,MT GAYWAS DR,MT HERBERT AV,MT FORAKER AV,1183.6107,36.0,Residential,AC Improved,42609.9852,Good,3250971.4308192004,32.825268,-117.191963,32.823456,-117.188873
19504,SS-019366,76.926,MT GAYWAS DR,MT FORAKER AV,MT EVEREST BL,928.1144,36.0,Residential,AC Improved,33412.1184,Good,2570260.6200384,32.823456,-117.188873,32.822327,-117.18618
19505,SS-019367,54.93,MT HARRIS DR,MT HERBERT AV,MT FORAKER AV,1005.7029,36.0,Residential,AC Improved,36205.3044,Fair,1988757.3706919998,32.826038,-117.190903,32.82468,-117.188049
19506,SS-019368,62.013999999999996,MT HARRIS DR,MT FORAKER AV,MT EVEREST BL,828.8591,36.0,Residential,AC Improved,29838.9276,Fair,1850431.2561863998,32.82468,-117.188049,32.823551,-117.185707
19507,SS-019369,67.524,MT HARRIS DR,MT EVEREST BL,MT CASTLE AV,190.5306,36.0,Residential,AC Improved,6859.1016,Fair,463153.9764384,32.823551,-117.185707,32.823154,-117.185379
19508,SS-019370,83.384,MT HAY DR,MT HERBERT AV,MT FORAKER AV,1034.3152,36.0,Residential,AC Improved,37235.3472,Good,3104832.1909247995,32.825588,-117.191269,32.824066,-117.188454
19509,SS-019371,81.14,MT HAY DR,MT FORAKER AV,MT EVEREST BL,796.6026,36.0,Residential,AC Improved,28677.6936,Good,2326908.058704,32.824066,-117.188454,32.823009,-117.186188
19510,SS-019372,52.742,MT HENRY AV,MT KING DR,MT GAYWAS DR,1088.7612,40.0,Residential,AC Improved,43550.448,Fair,2296937.728416,32.823933,-117.194809,32.825916,-117.192322
19511,SS-019373,1.09,MT HENRY AV,MT HIGHPINE PL,MT KING DR,455.5811,40.0,Residential,AC Improved,18223.244,Poor,19863.33596,32.822842,-117.195541,32.823933,-117.194809
19512,SS-019374,45.19,MT HENRY AV,MT HENRY PL,MT HIGHPINE PL,517.4834,40.0,Residential,AC Improved,20699.336,Fair,935402.99384,32.821602,-117.196358,32.822842,-117.195541
19513,SS-019375,16.01,MT HENRY AV,MT HENRY WY,MT HENRY PL,388.0624,36.0,Residential,AC Improved,13970.2464,Poor,223663.64486399997,32.820545,-117.196472,32.821602,-117.196358
19514,SS-019376,23.38,MT HENRY AV,MT HUBBARD AV,MT HENRY WY,895.3242,36.0,Residential,AC Improved,32231.6712,Poor,753576.472656,32.8191947,-117.1986073,32.820545,-117.196472
19516,SS-019378,21.8,MT HENRY WY,MT HENRY AV,MT HERBERT AV,247.0019,30.0,Residential,AC Improved,7410.057,Poor,161539.2426,32.820545,-117.196472,32.8205454,-117.1956971
19517,SS-019379,35.4,MT HERBERT AV,GENESEE AV,MT LONGS DR,183.5755,36.0,Residential,AC Improved,6608.718000000001,Poor,233948.6172,32.8264269,-117.1906465,32.826908,-117.190331
19518,SS-019380,58.0,MT HERBERT AV,MT HARRIS DR,GENESEE AV,179.109,38.0,Prime,AC Improved,6806.142,Fair,394756.23600000003,32.826038,-117.190903,32.8264269,-117.1906465
19519,SS-019381,92.72,MT HERBERT AV,MT HAY DR,MT HARRIS DR,199.7883,38.0,Prime,AC Improved,7591.9554,Good,703926.104688,32.825588,-117.191269,32.826038,-117.190903
19520,SS-019382,83.24,MT HERBERT AV,MT GAYWAS DR,MT HAY DR,243.1882,38.0,Prime,AC Improved,9241.1516,Good,769233.459184,32.825268,-117.191963,32.825588,-117.191269
19521,SS-019383,91.764,MT HERBERT AV,MT FRISSELL DR,MT GAYWAS DR,249.6897,38.0,Prime,AC Improved,9488.2086,Good,870675.9739704,32.824974,-117.192703,32.825268,-117.191963
19522,SS-019384,86.204,MT HERBERT AV,MT ETNA DR,MT FRISSELL DR,446.9286,38.0,Prime,AC Improved,16983.2868,Good,1464027.2553072,32.824142,-117.19371,32.824974,-117.192703
19523,SS-019385,94.116,MT HERBERT AV,MT KING DR,MT ETNA DR,234.3032,38.0,Prime,AC Improved,8903.5216,Good,837963.8389056,32.823582,-117.194077,32.824142,-117.19371
19524,SS-019386,88.75399999999999,MT HERBERT AV,MT LAUDO DR,MT KING DR,731.5607,38.0,Prime,AC Improved,27799.3066,Good,2467299.6579764,32.821827,-117.195251,32.823582,-117.194077
19525,SS-019387,34.312,MT HERBERT AV,MT HENRY WY,MT LAUDO DR,498.3754,38.0,Residential,AC Improved,18938.2652,Poor,649809.7555424,32.8205454,-117.1956971,32.821827,-117.195251
19526,SS-019388,56.11,MT HERBERT AV,MT HUBBARD AV,MT FORDE AV,506.7189,38.0,Residential,AC Improved,19255.3182,Fair,1080415.904202,32.8181017,-117.1985331,32.818829,-117.197144
19527,SS-019389,51.574,MT HERBERT AV,MT FORDE AV,MT HENRY WY,839.1302,38.0,Residential,AC Improved,31886.9476,Fair,1644537.4355223998,32.818829,-117.197144,32.8205454,-117.1956971
19529,SS-019391,46.48,MT HORTON DR,MT PUTMAN AV,MT JEFFERS AV,277.2923,36.0,Residential,AC Improved,9982.5228,Fair,463987.65974399995,32.8186117,-117.1937802,32.8187624,-117.193092
19530,SS-019392,53.722,MT HORTON DR,MT HUKEE AV,MT PUTMAN AV,237.2111,36.0,Residential,AC Improved,8539.5996,Fair,458764.36971120007,32.8185829,-117.1945474,32.8186117,-117.1937802
19531,SS-019393,56.504,MT HUBBARD AV,MT HENRY AV,MT HERBERT AV,445.0661,36.0,Residential,AC Improved,16022.3796,Fair,905328.5369184,32.8191947,-117.1986073,32.8181017,-117.1985331
19533,SS-019395,45.466,MT HUKEE AV,MT VOSS DR,MT LAUDO DR,839.5082,36.0,Residential,AC Improved,30222.2952,Fair,1374086.8735632,32.819285,-117.1947408,32.8215003,-117.1945319
19534,SS-019396,48.156000000000006,MT HUKEE AV,MT HORTON DR,MT VOSS DR,249.33,36.0,Residential,AC Improved,8975.88,Fair,432242.47728,32.8185829,-117.1945474,32.819285,-117.1947408
19535,SS-019397,54.928000000000004,MT HUKEE AV,MT ARMET DR,MT HORTON DR,1202.7889,36.0,Residential,AC Improved,43300.4004,Fair,2378404.3931712,32.815613,-117.196083,32.8185829,-117.1945474
19536,SS-019398,62.214,MT JEFFERS AV,MT HORTON DR,MT LAUDO DR,707.4303,36.0,Residential,AC Improved,25467.4908,Fair,1584434.4726312,32.8187624,-117.193092,32.8209104,-117.1932788
19537,SS-019399,66.95,MT KING DR,MT LINDSEY AV,MT HENRY AV,242.1425,36.0,Residential,AC Improved,8717.13,Fair,583611.8535,32.825268,-117.194794,32.823933,-117.194809
19538,SS-019400,69.13600000000001,MT KING DR,MT HENRY AV,MT HERBERT AV,258.6309,36.0,Residential,AC Improved,9310.7124,Fair,643705.4124864,32.823933,-117.194809,32.823582,-117.194077
19539,SS-019401,56.303999999999995,MT LA PALMA DR,MT LONGS DR,MT LONGS DR,1241.1357,36.0,Residential,AC Improved,44680.8852,Fair,2515712.5603008,32.825905,-117.188217,32.825905,-117.188217
19542,SS-019404,75.26,MT LA PLATTA DR,MT LONGS DR,MT LA PLATTA PL,825.3614,36.0,Residential,AC Improved,29713.0104,Good,2236201.1627040002,32.828083,-117.191368,32.827831,-117.188904
19543,SS-019405,64.07600000000001,MT LA PLATTA DR,MT LA PLATTA PL,MT FORAKER AV,917.1707,36.0,Residential,AC Improved,33018.1452,Fair,2115670.6718352,32.827831,-117.188904,32.826015,-117.186989
19544,SS-019406,55.188,MT LA PLATTA DR,MT FORAKER AV,MT LA PLATTA CT,234.5284,30.0,Residential,AC Improved,7035.852,Fair,388294.60017600004,32.826015,-117.186989,32.825607,-117.186394
19547,SS-019409,36.32,MT LAUDO DR,MT HERBERT AV,MT HUKEE AV,250.9282,36.0,Residential,AC Improved,9033.4152,Poor,328093.640064,32.821827,-117.195251,32.8215003,-117.1945319
19548,SS-019410,76.314,MT LAUDO DR,MT HUKEE AV,MT PUTMAN AV,255.3919,36.0,Residential,AC Improved,9194.1084,Good,701639.1884375999,32.8215003,-117.1945319,32.8211518,-117.1938071
19549,SS-019411,83.43,MT LAUDO DR,MT PUTMAN AV,MT JEFFERS AV,263.4539,36.0,Residential,AC Improved,9484.3404,Good,791278.519572,32.8211518,-117.1938071,32.8209104,-117.1932788
19550,SS-019412,90.0,MT LAURENCE DR,PRIVATE RD,MT SANDY DR,118.7729,30.0,Local,AC Improved,3563.187,Good,320686.83,32.806885,-117.209877,32.8068374,-117.2107333
19551,SS-019413,95.00200000000001,MT LAURENCE DR,MT SANDY DR,DON LORENZO DR,265.0168,36.0,Local,AC Improved,9540.6048,Good,906376.5372096001,32.8068374,-117.2107333,32.806885,-117.209877
19552,SS-019414,70.234,MT LAURENCE DR,DON LORENZO DR,TRENTON AV,580.9665,36.0,Local,AC Improved,20914.793999999998,Good,1468929.6417959998,32.806885,-117.209877,32.806606,-117.208038
19554,SS-019416,80.66,MT LINDSEY AV,MT LINDSEY PL,MT FRISSELL DR,515.2108,36.0,Residential,AC Improved,18547.5888,Good,1496048.512608,32.825268,-117.194794,32.825268,-117.194794
19555,SS-019417,75.26,MT LINDSEY AV,MT KING DR,MT LINDSEY PL,429.4445,36.0,Residential,AC Improved,15460.002,Good,1163519.75052,32.825268,-117.194794,32.825268,-117.194794
19557,SS-019419,48.346000000000004,MT LONGS DR,MT LA PLATTA DR,MT LA PALMA DR,253.671,36.0,Residential,AC Improved,9132.155999999999,Fair,441503.213976,32.828083,-117.191368,32.825905,-117.188217
19558,SS-019420,70.176,MT LONGS DR,MT LA PALMA DR,MT HERBERT AV,297.8755,36.0,Residential,AC Improved,10723.518,Good,752533.599168,32.825905,-117.188217,32.826908,-117.190331
19559,SS-019421,75.744,MT LONGS DR,MT HERBERT AV,MT LA PALMA DR,745.4709,36.0,Residential,AC Improved,26836.9524,Good,2032738.1225856002,32.826908,-117.190331,32.825905,-117.188217
19560,SS-019422,71.896,MT LONGS DR,MT LA PALMA DR,MT FORAKER AV,263.8221,36.0,Residential,AC Improved,9497.5956,Good,682839.1332576,32.825905,-117.188217,32.82555,-117.187469
19561,SS-019423,74.172,MT MIGUEL DR,CHADWICK AV,MARMIL AV,1103.1913,36.0,Residential,AC Improved,39714.8868,Good,2945732.5837296,32.6679,-117.058907,32.665253,-117.060112
19563,SS-019425,64.934,MT PUTMAN AV,MT HORTON DR,MT LAUDO DR,939.0086,36.0,Residential,AC Improved,33804.3096,Fair,2195049.0395664,32.8186117,-117.1937802,32.8211518,-117.1938071
19564,SS-019426,65.258,MT PUTMAN AV,MT ARMET DR,MT PUTMAN CT,563.23,36.0,Residential,AC Improved,20276.28,Fair,1323189.48024,32.815166,-117.195686,32.8165018,-117.1949351
19565,SS-019427,69.528,MT PUTMAN AV,MT PUTMAN CT,MT HORTON DR,880.9151,36.0,Residential,AC Improved,31712.9436,Fair,2204937.5426207995,32.8165018,-117.1949351,32.8186117,-117.1937802
19567,SS-019429,53.4,MT RIAS PL,MT ADA RD,BALBOA AV,340.0132,40.0,Residential,AC Improved,13600.528,Fair,726268.1952,32.819359,-117.173439,32.8202101,-117.173449
19568,SS-019430,28.36,MT ROYAL AV,DIANE AV,MT ROYAL PL,157.0287,36.0,Residential,AC Improved,5653.0332,Poor,160320.021552,32.833546,-117.187103,32.833538,-117.186577
19569,SS-019431,33.25,MT ROYAL AV,MT ROYAL PL,ROYAL GREENS PL,308.0581,36.0,Residential,AC Improved,11090.0916,Poor,368745.5457,32.833538,-117.186577,32.8335342,-117.1856017
19570,SS-019432,59.0,MT ROYAL AV,MT ROYAL CT,DIANE AV,288.3822,40.0,Residential,AC Improved,11535.288,Fair,680581.9920000001,32.8335424,-117.1880348,32.833546,-117.187103
19572,SS-019434,60.663999999999994,MT ROYAL AV,KINGS WY,MT ROYAL CT,185.6257,40.0,Residential,AC Improved,7425.028,Fair,450431.898592,32.833458,-117.188622,32.8335424,-117.1880348
19575,SS-019437,65.39,MT SANDY DR,BRANDYWINE ST,MT LAURENCE DR,308.026,36.0,Local,AC Improved,11088.936000000002,Fair,725105.52504,32.8060534,-117.2107394,32.8068374,-117.2107333
19577,SS-019439,74.57600000000001,MT ST HELENS DR,MT ST HELENS WY,MT CERVIN DR,225.2487,36.0,Residential,AC Improved,8108.9532,Good,604733.2938432,32.831905,-117.187469,32.8322257,-117.1868316
19578,SS-019440,48.0,MT ST HELENS DR,MT ST HELENS CT,MT ST HELENS WY,236.907,36.0,Residential,AC Improved,8528.652,Fair,409375.29600000003,32.831588,-117.1881371,32.831905,-117.187469
19579,SS-019441,56.568000000000005,MT ST HELENS DR,MT CRESTI DR,MT ST HELENS CT,430.4884,36.0,Residential,AC Improved,15497.5824,Fair,876667.2412032,32.831005,-117.189362,32.831588,-117.1881371
19582,SS-019444,84.4,MT TAMI DR,TAMRES DR,MT TAMI LN,933.8333,40.0,Residential,AC Improved,37353.332,Good,3152621.2208,32.79911,-117.181549,32.801296,-117.182541
19583,SS-019445,50.68600000000001,MT TAMI LN,MT TAMI DR,MT AACHEN AV,472.0,36.0,Residential,AC Improved,16992.0,Fair,861256.512,32.801296,-117.182541,32.801987,-117.181396
19584,SS-019446,52.21,MT TERMINUS DR,MT ALIFAN DR,MT BIGELOW DR,256.8912,36.0,Residential,AC Improved,9248.0832,Fair,482842.423872,32.811497,-117.194206,32.8121643,-117.1944038
19586,SS-019448,49.01,MT VOSS DR,MT FORDE AV,MT HUKEE AV,726.9867,36.0,Residential,AC Improved,26171.5212,Fair,1282666.254012,32.8182287,-117.196743,32.819285,-117.1947408
19587,SS-019449,69.408,MTN GLEN TR,BRIARCLIFF DR,SCRIPPS LAKE DR,156.3671,36.0,Residential,AC Improved,5629.2156,Fair,390712.5963648,32.9116156,-117.0896123,32.9120481,-117.0896926
19589,SS-019451,87.586,MTN PASS RD,BRIARLEAF WY,OAKVIEW WY,1286.7577,40.0,Prime,AC Improved,51470.308,Good,4508078.396488,32.9390924,-117.0721987,32.941177,-117.069467
19590,SS-019452,92.36399999999999,MTN PASS RD,SPRINGHURST DR,BRIARLEAF WY,640.1133,40.0,Prime,AC Improved,25604.532000000003,Good,2364936.993648,32.938767,-117.074202,32.9390924,-117.0721987
19593,SS-019455,17.2,MUCHACHA WY,ROBUSTO RD,AMARO DR,532.0048,36.0,Residential,AC Improved,19152.1728,Poor,329417.37215999997,32.8362871,-117.1072114,32.8361221,-117.1055242
19595,SS-019457,68.87,MUIR AV,ABBOTT ST,WEST POINT LOMA BL,555.4071,30.0,Residential,AC Improved,16662.213,Fair,1147526.60931,32.7524813,-117.2488904,32.7533895,-117.2503367
19596,SS-019458,72.006,MUIR AV,BACON ST,ABBOTT ST,659.0067,30.0,Residential,AC Improved,19770.201,Good,1423573.093206,32.7514089,-117.247153,32.7524813,-117.2488904
19597,SS-019459,73.488,MUIR AV,CABLE ST,BACON ST,663.4110000000001,30.0,Residential,AC Improved,19902.33,Good,1462582.42704,32.7503584,-117.2454294,32.7514089,-117.247153
19598,SS-019460,69.922,MUIR AV,SUNSET CLIFFS BL,CABLE ST,655.4060000000001,30.0,Residential,AC Improved,19662.18,Fair,1374818.94996,32.749297,-117.2437116,32.7503584,-117.2454294
19599,SS-019461,76.88,MUIR AV,EBERS ST,SUNSET CLIFFS BL,652.6077,30.0,Residential,AC Improved,19578.231,Good,1505174.39928,32.7482291,-117.2419822,32.749297,-117.2437116
19600,SS-019462,69.182,MUIR AV,FROUDE ST,EBERS ST,667.012,30.0,Residential,AC Improved,20010.36,Fair,1384356.72552,32.7471639,-117.2402143,32.7482291,-117.2419822
19601,SS-019463,74.146,MUIR AV,GUIZOT ST,FROUDE ST,643.0629,30.0,Residential,AC Improved,19291.887,Good,1430416.2535020001,32.74607659999999,-117.2384972,32.7471639,-117.2402143
19603,SS-019465,82.55,MUIR AV,VENICE ST,GUIZOT ST,795.8309,30.0,Residential,PCC Jointed Concrete,23874.927000000003,Good,1970875.22385,32.7447947,-117.2364178,32.74607659999999,-117.2384972
19604,SS-019466,54.018,MUIRLANDS DR,VISTA VERDE DR,EL CAM DEL TEATRO,839.9101,20.0,Prime,AC Improved,16798.202,Fair,907405.2756360001,32.832047,-117.26123,32.831474,-117.262466
19605,SS-019467,71.66,MUIRLANDS DR,EL CAM DEL TEATRO,NAUTILUS ST,702.2862,20.0,Prime,AC Improved,14045.723999999998,Good,1006516.58184,32.831474,-117.262466,32.8331438,-117.2633344
19606,SS-019468,61.93600000000001,MUIRLANDS DR,EL PASO REAL,VISTA VERDE DR,276.9841,20.0,Prime,AC Improved,5539.682,Fair,343105.744352,32.831299,-117.261398,32.832047,-117.26123
19607,SS-019469,71.47,MUIRLANDS DR,EL CAM DEL TEATRO,EL PASO REAL,696.8732,20.0,Prime,AC Improved,13937.464,Good,996110.5520799999,32.831474,-117.262466,32.831299,-117.261398
19608,SS-019470,63.982,MUIRLANDS DR,EL CAM DEL TEATRO,EL CAM DEL TEATRO,127.3801,20.0,Prime,AC Improved,2547.6020000000003,Fair,163000.671164,32.831474,-117.262466,32.831474,-117.262466
19609,SS-019471,64.33,MUIRLANDS DR,LA CUMBRE DR,EL CAM DEL TEATRO,323.0,20.0,Residential,AC Improved,6460.0,Fair,415571.8,32.8285243,-117.2612008,32.831474,-117.262466
19610,SS-019472,69.25,MUIRLANDS DR,LA JOLLA MESA DR,LA CUMBRE DR,374.0,20.0,Residential,AC Improved,7480.0,Fair,517990.0,32.8275062,-117.2612247,32.8285243,-117.2612008
19611,SS-019473,95.5,MUIRLANDS DR,INSPIRATION DR,LA JOLLA MESA DR,257.9926,20.0,Prime,PCC Jointed Concrete,5159.852,Good,492765.86600000004,32.8271037,-117.2619128,32.8275062,-117.2612247
19612,SS-019474,75.25,MUIRLANDS DR,SOLYMAR DR,INSPIRATION DR,269.8638,20.0,Prime,PCC Jointed Concrete,5397.276,Good,406145.019,32.8270537,-117.2627946,32.8271037,-117.2619128
19613,SS-019475,54.478,MUIRLANDS DR,MUIRLANDS VISTA WY,SOLYMAR DR,816.0289,20.0,Residential,PCC Jointed Concrete,16320.578000000001,Fair,889112.448284,32.826,-117.269463,32.8270537,-117.2627946
19614,SS-019476,60.251999999999995,MUIRLANDS DR,SOLYMAR DR,SOLYMAR DR,1966.4776,20.0,Prime,PCC Jointed Concrete,39329.552,Fair,2369684.167104,32.8270537,-117.2627946,32.8270537,-117.2627946
19616,SS-019478,47.11,MUIRLANDS VISTA WY,MUIRLANDS DR,NAUTILUS ST,3445.4432,36.0,Residential,AC Improved,124035.9552,Fair,5843333.849472,32.826,-117.269463,32.8326296,-117.2643808
19617,SS-019479,54.176,MULBERRY ST,ALCEDO ST,MALLARD ST,806.1393,40.0,Residential,AC Unimproved,32245.572,Fair,1746936.1086720002,32.7280986,-117.0547611,32.7296044,-117.0528632
19618,SS-019480,61.001999999999995,MULBERRY ST,BLUEBIRD ST,ALCEDO ST,493.3155,40.0,Residential,AC Unimproved,19732.62,Fair,1203729.2852399999,32.727174,-117.0559484,32.7280986,-117.0547611
19619,SS-019481,62.54,MULBERRY ST,PARADISE ST,BLUEBIRD ST,712.7054,40.0,Residential,AC Unimproved,28508.216,Fair,1782903.8286400002,32.725873,-117.0576785,32.727174,-117.0559484
19621,SS-019483,82.568,MULGRAVE RD,PETENWELL RD,SCRIPPS CREEK DR,272.1812,36.0,Residential,AC Improved,9798.5232,Good,809044.4635776,32.9299282,-117.0918507,32.9303591,-117.0911267
19623,SS-019485,41.56,MULVANEY DR,LAKE MURRAY BL,MEWALL DR,182.85,36.0,Residential,AC Improved,6582.6,Fair,273572.856,32.8102116,-117.0074097,32.8103174,-117.0069181
19624,SS-019486,39.6,MULVANEY DR,SOUTHGATE DR,LAKE MURRAY BL,201.3752,40.0,Residential,AC Improved,8055.008000000001,Poor,318978.3168,32.8100336,-117.0081406,32.8102116,-117.0074097
19625,SS-019487,43.016000000000005,MULVANEY DR,TURNBRIDGE WY,SOUTHGATE DR,590.8074,40.0,Residential,AC Improved,23632.296000000002,Fair,1016566.844736,32.8092567,-117.0098304,32.8100336,-117.0081406
19626,SS-019488,33.866,MULVANEY DR,WALLSEY DR,TURNBRIDGE WY,267.4864,40.0,Residential,AC Improved,10699.456,Poor,362347.776896,32.8088323,-117.010501,32.8092567,-117.0098304
19627,SS-019489,40.07,MULVANEY DR,BOBHIRD DR,WALLSEY DR,248.5425,40.0,Residential,AC Improved,9941.7,Fair,398363.919,32.8085097,-117.0112261,32.8088323,-117.010501
19628,SS-019490,38.028,MULVANEY DR,HUDSON DR,BOBHIRD DR,296.786,40.0,Residential,AC Improved,11871.44,Poor,451447.12032,32.808173,-117.0120835,32.8085097,-117.0112261
19629,SS-019491,86.73200000000001,MUNDA RD,PARADISE VALLEY RD,RIDGEWOOD DR,1239.0042,40.0,Collector,AC Improved,49560.168,Good,4298452.490976,32.6889484,-117.0629668,32.6858086,-117.0619346
19630,SS-019492,92.26799999999999,MUNDA RD,RIDGEWOOD DR,ORISKANY RD,1170.8864,40.0,Collector,AC Improved,46835.456,Good,4321413.854208,32.6858086,-117.0619346,32.683228,-117.060097
19631,SS-019493,88.404,MUNDA RD,ORISKANY RD,ALLEGHANY ST,790.5726,40.0,Collector,AC Improved,31622.904,Good,2795591.205216,32.683228,-117.060097,32.681206,-117.060471
19632,SS-019494,70.12,MUNDIAL ST,LIBELLE CT,CYPRESS CANYON PARK DR,256.0,36.0,Residential,AC Improved,9216.0,Good,646225.92,32.9281555,-117.0678344,32.9288159,-117.0675746
19637,SS-019499,11.0,MURAT ST,MURAT CT,MURAT PL,227.0404,36.0,Residential,AC Improved,8173.4544,Poor,89907.9984,32.831604,-117.224289,32.832138,-117.223907
19638,SS-019500,43.733999999999995,MURAT ST,LEATHERS ST,LISANN ST,279.9854,36.0,Residential,AC Improved,10079.4744,Fair,440815.7334096,32.83152,-117.225807,32.83144,-117.224907
19639,SS-019501,53.75,MURAT ST,LISANN ST,MURAT CT,211.3829,36.0,Residential,AC Improved,7609.7844,Fair,409025.9115,32.83144,-117.224907,32.831604,-117.224289
19641,SS-019503,93.49600000000001,MURPHY AV,HAWORTH ST,FLOREY ST,629.4704,36.0,Residential,AC Improved,22660.9344,Good,2118706.7226624,32.8570984,-117.1953484,32.8558875,-117.193956
19642,SS-019505,69.366,MURPHY CANYON RD,BALBOA AV,CLAIREMONT MESA BL,3856.3259999999996,44.0,Major,AC Improved,169678.34399999998,Fair,11769908.009903999,32.8250383,-117.1186884,32.8330184,-117.1211605
19643,SS-019506,70.048,MURPHY CANYON RD,AERO DR,OLD MURPHY CANYON RD,1338.5231,40.0,Major,AC Improved,53540.924000000006,Good,3750434.6443519997,32.8095325,-117.1165301,32.831238,-117.120939
19644,SS-019507,69.14,MURPHY CANYON RD,STONECREST BL,AERO DR,2151.8604,40.0,Residential,AC Improved,86074.416,Fair,5951185.12224,32.8043203,-117.1139093,32.8095325,-117.1165301
19646,SS-019509,55.036,MURRAY CANYON RD,MISSION HEIGHTS RD,METROPOLITAN DR,433.9807,60.0,Major,AC Improved,26038.842,Fair,1433073.7083120001,32.7757984,-117.1579595,32.777056,-117.1582509
19647,SS-019510,40.23,MURRAY CANYON RD,FRAZEE RD,MISSION HEIGHTS RD,797.3804,62.0,Major,AC Improved,49437.5848,Fair,1988874.0365040002,32.7741401,-117.1593885,32.7757984,-117.1579595
19649,SS-019512,62.736000000000004,MURRAY PARK DR,BELLE GLADE AV,ELMCREST DR,237.5076,40.0,Prime,AC Improved,9500.304,Fair,596011.071744,32.7927373,-117.0467925,32.7928233,-117.0459735
19650,SS-019513,54.922,MURRAY PARK DR,HOPEDALE CT,LOCHMOOR DR,672.3615,40.0,Prime,AC Improved,26894.46,Fair,1477097.53212,32.7923257,-117.0539615,32.792296,-117.0518371
19651,SS-019514,56.608000000000004,MURRAY PARK DR,LOCHMOOR DR,PARK RIDGE BL,342.9125,40.0,Prime,AC Improved,13716.5,Fair,776463.632,32.792296,-117.0518371,32.7928233,-117.0459735
19652,SS-019515,53.622,MURRAY PARK DR,BONNIE VIEW DR,MURRAY PARK CT,342.6252,40.0,Prime,AC Improved,13705.008,Fair,734889.9389760001,32.7921781,-117.0487057,32.7924407,-117.0476067
19653,SS-019516,65.80199999999999,MURRAY PARK DR,PARK RIDGE BL,CASSELBERRY WY,322.5601,40.0,Prime,AC Improved,12902.403999999999,Fair,849003.988008,32.7928233,-117.0459735,32.7921605,-117.0497409
19654,SS-019517,71.086,MURRAY PARK DR,CASSELBERRY WY,BONNIE VIEW DR,303.6343,40.0,Prime,AC Improved,12145.372,Good,863365.913992,32.7921605,-117.0497409,32.7921781,-117.0487057
19655,SS-019518,79.57,MURRAY PARK DR,ELMCREST DR,GOLFCREST DR,1159.1236,40.0,Prime,AC Improved,46364.944,Good,3689258.59408,32.7928233,-117.0459735,32.79387210000001,-117.0426544
19656,SS-019519,54.2,MURRAY PARK DR,MURRAY PARK CT,BELLE GLADE AV,276.3104,40.0,Prime,AC Improved,11052.416000000001,Fair,599040.9472,32.7924407,-117.0476067,32.7927373,-117.0467925
19657,SS-019520,94.804,MURRAY RIDGE RD,NEVA AV,MACAWA AV,291.6207,64.0,Major,AC Improved,18663.7248,Good,1769395.7659391998,32.7996667,-117.1421842,32.8004613,-117.1422625
19658,SS-019521,95.2,MURRAY RIDGE RD,ONALASKA AV,NEVA AV,289.3788,64.0,Major,AC Improved,18520.2432,Good,1763127.1526400002,32.7988892,-117.1423135,32.7996667,-117.1421842
19659,SS-019522,92.97200000000001,MURRAY RIDGE RD,PINECREST AV,ONALASKA AV,252.4836,64.0,Major,AC Improved,16158.9504,Good,1502329.9365888,32.7981977,-117.1425446,32.7988892,-117.1423135
19660,SS-019523,94.292,MURRAY RIDGE RD,AL CT,PINECREST AV,316.6911,64.0,Major,AC Improved,20268.2304,Good,1911131.9808768001,32.7973754,-117.1428805,32.7981977,-117.1425446
19661,SS-019525,96.012,MURRAY RIDGE RD,FIRESIDE AV,POLLAND AV,355.56300000000005,64.0,Major,AC Improved,22756.032000000003,Good,2184852.144384,32.7963683,-117.1434347,32.7972457,-117.1429476
19662,SS-019526,98.164,MURRAY RIDGE RD,CHALAR ST,FIRESIDE AV,708.2914,64.0,Major,AC Improved,45330.6496,Good,4449837.8873344,32.7946139,-117.1444113,32.7963683,-117.1434347
19663,SS-019527,92.6,MURRAY RIDGE RD,HARJOAN AV,CHALAR ST,355.6709,64.0,Major,AC Improved,22762.9376,Good,2107848.02176,32.79364109999999,-117.1445554,32.7946139,-117.1444113
19664,SS-019528,96.352,MURRAY RIDGE RD,CHANTILLY AV,HARJOAN AV,783.7889,64.0,Major,AC Improved,50162.4896,Good,4833256.197939199,32.7914931,-117.1447451,32.79364109999999,-117.1445554
19665,SS-019529,98.03200000000001,MURRAY RIDGE RD,CELESTINE AV,CHANTILLY AV,259.0307,64.0,Major,AC Improved,16577.9648,Good,1625171.0452736,32.7907659,-117.1447649,32.7914931,-117.1447451
19666,SS-019530,81.388,MURRAY RIDGE RD,MISSION CENTER RD,CELESTINE AV,370.2439,64.0,Major,AC Improved,23695.6096,Good,1928538.2741248,32.7897829,-117.1448508,32.7907659,-117.1447649
19667,SS-019531,94.21600000000001,MURRAY RIDGE RD,CONVERSE AV,MISSION CENTER RD,348.0129,64.0,Major,AC Improved,22272.8256,Good,2098456.5367296003,32.7888103,-117.144823,32.7897829,-117.1448508
19668,SS-019532,95.384,MURRAY RIDGE RD,ENCINO AV,CONVERSE AV,505.0618,64.0,Major,AC Improved,32323.9552,Good,3083188.1427968,32.7874198,-117.1448427,32.7888103,-117.144823
19669,SS-019534,63.066,MURRAY RIDGE RD,IVERSON ST,HAMMOND DR,638.1935,64.0,Major,AC Improved,40844.384,Fair,2575891.921344,32.803057,-117.1413746,32.8043698,-117.1400541
19670,SS-019535,84.906,MURRAY RIDGE RD,MACAWA AV,SEDERSTROM WY,595.7715,64.0,Major,AC Improved,38129.376000000004,Good,3237412.7986560003,32.8004613,-117.1422625,32.78672690000001,-117.1445363
19671,SS-019536,85.944,MURRAY RIDGE RD,MACAWA AV,LARKDALE AV,405.5335,64.0,Major,AC Improved,25954.144,Good,2230602.951936,32.8004613,-117.1422625,32.8015347,-117.1419186
19672,SS-019537,85.54799999999999,MURRAY RIDGE RD,PHYLLIS PL,ENCINO AV,695.936,64.0,Major,AC Improved,44539.904,Good,3810299.7073919997,32.7874198,-117.1448427,32.7874198,-117.1448427
19673,SS-019538,68.564,MURRIETA CR,POWDERHORN DR,POWDERHORN DR,1068.4937,36.0,Residential,AC Improved,38465.7732,Fair,2637367.2736848,33.5539143,-117.2139232,33.5539143,-117.2139232
19674,SS-019539,69.86,MUSCAT ST,PERU PL,FREDONIA ST,252.942,36.0,Residential,AC Improved,9105.912,Fair,636139.01232,32.7265258,-117.0761123,32.7271226,-117.0761164
19675,SS-019540,87.3,MUSTANG ST,HATTON ST,ECKSTROM AV,917.1479,30.0,Residential,AC Improved,27514.437,Good,2402010.3501,32.8178032,-117.1635263,32.8202016,-117.1642799
19679,SS-019544,87.664,MYRTLE AV,WILSON AV,36TH ST,187.0106,40.0,Residential,AC Improved,7480.424,Good,655763.889536,32.742673,-117.1164811,32.7426392,-117.1156616
19680,SS-019545,11.97,MYRTLE AV,MYRTLE WY,RICHMOND ST,671.003,30.0,Residential,AC Improved,20130.09,Poor,240957.1773,32.7422609,-117.1533728,32.7422284,-117.1512113
19681,SS-019546,66.76,MYRTLE AV,RICHMOND ST,ALBERT ST,326.0138,40.0,Residential,AC Improved,13040.552,Fair,870587.25152,32.7422284,-117.1512113,32.7422395,-117.1501293
19682,SS-019547,84.024,MYRTLE AV,ALBERT ST,HERBERT ST,279.0,40.0,Residential,AC Improved,11160.0,Good,937707.84,32.7422395,-117.1501293,32.7422501,-117.1492237
19683,SS-019549,80.072,MYRTLE AV,ARIZONA ST,PARK VILLA DR,180.9727,40.0,Residential,AC Improved,7238.908,Good,579633.841376,32.7419697,-117.1379079,32.742129,-117.1373494
19684,SS-019550,90.376,MYRTLE AV,PARK VILLA DR,ARNOLD AV,171.0031,40.0,Residential,AC Improved,6840.124,Good,618183.046624,32.742129,-117.1373494,32.742129,-117.1368102
19685,SS-019551,85.366,MYRTLE AV,28TH ST,UTAH ST,252.0177,52.0,Residential,AC Improved,13104.9204,Good,1118714.6348664,32.7421404,-117.1336432,32.7421384,-117.1328162
19686,SS-019552,83.006,MYRTLE AV,UTAH ST,GRANADA AV,281.0161,52.0,Residential,AC Improved,14612.8372,Good,1212953.1646232,32.7421384,-117.1328162,32.7421438,-117.1319102
19687,SS-019553,79.96,MYRTLE AV,GRANADA AV,29TH ST,278.0163,52.0,Residential,AC Improved,14456.8476,Good,1155969.534096,32.7421438,-117.1319102,32.7421375,-117.1310017
19688,SS-019554,72.672,MYRTLE AV,29TH ST,30TH ST,282.01599999999996,52.0,Residential,AC Improved,14664.832,Good,1065722.6711040002,32.7421375,-117.1310017,32.7421426,-117.1300988
19689,SS-019555,77.28399999999999,MYRTLE AV,30TH ST,RAY ST,254.0175,52.0,Residential,AC Improved,13208.91,Good,1020837.40044,32.7421426,-117.1300988,32.74214389999999,-117.1292621
19691,SS-019557,84.038,MYRTLE AV,MISSISSIPPI ST,LOUISIANA ST,332.0135,40.0,Residential,AC Improved,13280.54,Good,1116070.02052,32.7419588,-117.1411585,32.7419593,-117.1400778
19692,SS-019558,79.468,MYRTLE AV,LOUISIANA ST,TEXAS ST,334.0239,40.0,Residential,AC Improved,13360.956,Good,1061768.451408,32.7419593,-117.1400778,32.7419681,-117.1389902
19693,SS-019559,76.476,MYRTLE AV,TEXAS ST,ARIZONA ST,342.7714,40.0,Residential,AC Improved,13710.856000000002,Good,1048551.4234559999,32.7419681,-117.1389902,32.7419697,-117.1379079
19694,SS-019560,89.27799999999999,MYRTLE AV,36TH ST,CHEROKEE AV,380.0473,40.0,Residential,AC Improved,15201.892,Good,1357194.513976,32.7426392,-117.1156616,32.742627,-117.1144388
19695,SS-019561,82.398,MYRTLE AV,CHEROKEE AV,37TH ST,380.0473,40.0,Residential,AC Improved,15201.892,Good,1252605.497016,32.742627,-117.1144388,32.742616,-117.1132059
19696,SS-019562,93.02,MYRTLE AV,37TH ST,38TH ST,190.0657,40.0,Residential,AC Improved,7602.628000000001,Good,707196.4565600001,32.742616,-117.1132059,32.749524,-117.11163
