,seg_id,oci,street,street_from,street_to,seg_length_ft,seg_width_ft,func_class,pvm_class,area_sq_ft,oci_desc,oci_wt,start_lat,start_long,end_lat,end_long
3133,SS-001209,85.676,51ST ST,RODMAN AV,CHAUCER AV,260.069,28.0,Residential,AC Improved,7281.932,Good,623886.806032,32.7935903,-117.0832688,32.7943023,-117.083261
3134,SS-001210,72.296,51ST ST,ZION AV,RODMAN AV,257.0001,28.0,Residential,AC Improved,7196.0028,Good,520242.2184288,32.7928693,-117.083294,32.7935903,-117.0832688
3135,SS-001211,82.926,51ST ST,ORCUTT AV,ZION AV,681.8775,40.0,Residential,AC Improved,27275.1,Good,2261814.9426,32.791255,-117.0842041,32.7928693,-117.083294
3136,SS-001215,95.42200000000001,51ST ST,MONROE AV,MADISON AV,711.1187,36.0,Residential,AC Improved,25600.2732,Good,2442829.2692903997,32.7589842,-117.084661,32.7609366,-117.0842959
3137,SS-001216,56.64,51ST ST,TROJAN AV,EL CAJON BL,797.0904,36.0,Residential,PCC Jointed Concrete,28695.2544,Fair,1625299.209216,32.7548919,-117.0847238,32.7570993,-117.0846961
3138,SS-001217,30.764,51ST ST,ORANGE AV,TROJAN AV,668.0479,36.0,Residential,PCC Jointed Concrete,24049.7244,Poor,739865.7214415999,32.7530449,-117.0847133,32.7548919,-117.0847238
3139,SS-001218,82.432,51ST ST,POLK AV,ORANGE AV,643.0778,36.0,Residential,AC Improved,23150.8008,Good,1908366.8115456002,32.7512856,-117.0847987,32.7530449,-117.0847133
3140,SS-001219,94.92,51ST ST,OTTILIE PL,POLK AV,432.4309,36.0,Residential,AC Improved,15567.5124,Good,1477668.277008,32.7548919,-117.0847238,32.7512856,-117.0847987
3141,SS-001220,76.04,51ST ST,LEMONA AV,STERLING CT,731.5619,30.0,Residential,PCC Jointed Concrete,21946.857000000004,Good,1668839.0062799999,32.7437543,-117.0841517,32.7451534,-117.0849798
3142,SS-001221,43.17,51ST ST,KRENNING ST,CHOLLAS RD,705.6836,36.0,Residential,AC Improved,25404.6096,Fair,1096716.996432,32.736019,-117.0850401,32.7377561,-117.0852574
3143,SS-001222,80.918,51ST ST,PALM ST,KRENNING ST,287.3881,36.0,Collector,AC Improved,10345.9716,Good,837175.3299288,32.7353689,-117.0855525,32.736019,-117.0850401
3144,SS-001223,87.74600000000001,51ST ST,CAMTO CACHORRO,PALM ST,266.9315,36.0,Collector,AC Improved,9609.534,Good,843198.170364,32.7346882,-117.0858617,32.7353689,-117.0855525
3145,SS-001224,80.038,51ST ST,INDIANAPOLIS AV,OLIVE ST,514.0,40.0,Residential,AC Improved,20560.0,Good,1645581.28,32.7332655,-117.0858635,32.7346882,-117.0858617
3146,SS-001225,91.6,51ST ST,KANDACE WY,INDIANAPOLIS AV,132.0,30.0,Residential,AC Improved,3960.0,Good,362736.0,32.7328942,-117.0858468,32.7332655,-117.0858635
3147,SS-001226,78.58800000000001,51ST ST,BEVNER CT,KANDACE WY,250.0,30.0,Residential,AC Improved,7500.0,Good,589410.0,32.7322072,-117.0858811,32.7328942,-117.0858468
3148,SS-001227,23.92,51ST ST,HILLTOP DR,GENEVA AV,649.0767,38.0,Residential,AC Improved,24664.9146,Poor,589984.757232,32.715016,-117.0843707,32.7167927,-117.0843812
3149,SS-001228,37.141999999999996,51ST ST,MARKET ST,ROSWELL ST,396.5617,40.0,Collector,AC Improved,15862.468,Poor,589163.7864560001,32.7104557,-117.0844788,32.7115334,-117.0843684
3150,SS-001230,88.21600000000001,51ST ST,EL CAJON BL,MONROE AV,682.1445,36.0,Residential,AC Improved,24557.202,Good,2166338.1316319997,32.7570993,-117.0846961,32.7589842,-117.084661
3154,SS-001234,45.56,52ND ST,MONROE AV,CONTOUR BL,582.1041,36.0,Residential,PCC Jointed Concrete,20955.7476,Fair,954743.860656,32.7589703,-117.0835747,32.7605593,-117.0835527
3155,SS-001235,88.456,52ND ST,TROJAN AV,EL CAJON BL,853.2115,36.0,Collector,PCC Jointed Concrete,30715.613999999998,Good,2716980.351984,32.7548922,-117.083659,32.7571997,-117.0836063
3156,SS-001236,80.268,52ND ST,ORANGE AV,TROJAN AV,667.1686,36.0,Collector,PCC Jointed Concrete,24018.0696,Good,1927882.4106528,32.7530409,-117.0836298,32.7548922,-117.083659
3157,SS-001237,95.18,52ND ST,POLK AV,ORANGE AV,646.4019,60.0,Collector,AC Improved,38784.114,Good,3691471.9705199995,32.7492069,-117.0833399,32.7530409,-117.0836298
3158,SS-001238,94.41799999999999,52ND ST,OTTILIE PL,POLK AV,298.2712,40.0,Collector,AC Improved,11930.848,Good,1126486.806464,32.7491368,-117.0835847,32.7492069,-117.0833399
3159,SS-001239,68.9,52ND ST,52ND PL,OTTILIE PL,187.0962,40.0,Collector,AC Improved,7483.848000000001,Fair,515637.1272,32.7499533,-117.0835624,32.7491368,-117.0835847
3160,SS-001240,56.878,52ND ST,UNIVERSITY AV,52ND PL,315.0572,40.0,Collector,AC Improved,12602.288,Fair,716792.936864,32.7491368,-117.0835847,32.7499533,-117.0835624
3161,SS-001241,41.408,52ND ST,WIGHTMAN ST,WIGHTMAN ST,81.0989,40.0,Collector,AC Improved,3243.9559999999997,Fair,134325.730048,32.7475766,-117.083611,32.7475766,-117.083611
3162,SS-001242,43.28,52ND ST,TOWLE CT,WIGHTMAN ST,117.0382,40.0,Collector,AC Improved,4681.528,Fair,202616.53184,32.7470213,-117.0836187,32.7475766,-117.083611
3163,SS-001243,37.85,52ND ST,LANDIS ST,LANDIS ST,188.1912,40.0,Collector,AC Improved,7527.648,Poor,284921.4768,32.7464567,-117.0836229,32.7464567,-117.0836229
3164,SS-001244,87.13,52ND ST,SHELBY ST,54TH (W FTG) RD,1215.4768,36.0,Residential,AC Improved,43757.1648,Good,3812561.7690239996,32.7406032,-117.08198,32.74292610000001,-117.0796168
3165,SS-001245,94.67,52ND ST,REDWOOD ST,SPRUCE ST,220.1839,36.0,Residential,AC Improved,7926.6204,Good,750413.153268,32.7377301,-117.083309,32.7383462,-117.0832999
3166,SS-001246,83.572,52ND ST,OAK PARK DR,AARON CT,599.1868,36.0,Residential,AC Improved,21570.7248,Good,1802708.6129856003,32.7315771,-117.0837207,32.7331964,-117.08373
3167,SS-001247,94.6,52ND ST,LAUREL ST,OAK PARK DR,293.0427,36.0,Residential,AC Improved,10549.5372,Good,997986.21912,32.7307659,-117.0837247,32.7315771,-117.0837207
3168,SS-001248,84.706,52ND ST,KALMIA ST,LAUREL ST,292.0271,36.0,Residential,AC Improved,10512.9756,Good,890512.1111736,32.7299647,-117.0837271,32.7307659,-117.0837247
3169,SS-001249,86.92,52ND ST,PIROTTE DR,KALMIA ST,277.0073,36.0,Residential,AC Improved,9972.2628,Good,866789.082576,32.7292066,-117.0837352,32.7299647,-117.0837271
3170,SS-001250,92.89200000000001,52ND ST,DE BURN DR,PIROTTE DR,419.4008,36.0,Residential,AC Improved,15098.4288,Good,1402523.2480896001,32.728125,-117.0832667,32.7292066,-117.0837352
3171,SS-001251,82.93799999999999,52ND ST,HANIMAN DR,DE BURN DR,245.5334,36.0,Residential,AC Improved,8839.2024,Good,733105.7686511999,32.7277925,-117.0826186,32.728125,-117.0832667
3172,SS-001252,37.87,52ND ST,EL CAJON BL,MONROE AV,630.0412,36.0,Residential,PCC Jointed Concrete,22681.4832,Poor,858947.7687840001,32.7571997,-117.0836063,32.7589703,-117.0835747
3173,SS-001253,69.47,52ND ST,REX AV,UNIVERSITY AV,312.4761,40.0,Collector,PCC Jointed Concrete,12499.044,Fair,868308.58668,32.7482277,-117.0836006,32.7491368,-117.0835847
3174,SS-001254,42.776,52ND ST,WIGHTMAN ST,REX AV,243.9404,40.0,Collector,AC Improved,9757.616,Fair,417391.782016,32.7475766,-117.083611,32.7482277,-117.0836006
3175,SS-001255,56.582,52ND ST,LANDIS ST,TOWLE CT,208.0002,40.0,Collector,PCC Jointed Concrete,8320.008,Fair,470762.692656,32.7464567,-117.0836229,32.7470213,-117.0836187
3176,SS-001256,72.252,53RD ST,MEADE AV,EL CAJON BL,343.0714,30.0,Residential,AC Improved,10292.142,Good,743627.843784,32.7565682,-117.0817373,32.7575582,-117.0817466
3177,SS-001257,80.686,53RD ST,TROJAN AV,MEADE AV,633.0,30.0,Residential,AC Improved,18990.0,Good,1532227.14,32.7548912,-117.081387,32.7565682,-117.0817373
3178,SS-001258,43.028,53RD ST,SHELBY ST,54TH (W FTG) RD,891.4136,36.0,Residential,AC Improved,32090.8896,Fair,1380806.7977088,32.7402931,-117.0813195,32.7475387,-117.0795338
3179,SS-001259,76.168,53RD ST,NORTH THORN ST,SHELBY ST,157.0,36.0,Residential,AC Improved,5652.0,Good,430501.536,32.7399165,-117.081418,32.7402931,-117.0813195
3180,SS-001260,83.71600000000001,53RD ST,SOUTH THORN ST,NORTH THORN ST,254.0,36.0,Residential,AC Improved,9144.0,Good,765499.104,32.7392062,-117.0813727,32.7399165,-117.081418
3181,SS-001261,81.818,53RD ST,SPRUCE ST,SOUTH THORN ST,285.0,36.0,Residential,AC Improved,10260.0,Good,839452.68,32.73841950000001,-117.0813907,32.7392062,-117.0813727
3182,SS-001262,77.3,53RD ST,REDWOOD ST,SPRUCE ST,254.0,36.0,Residential,AC Improved,9144.0,Good,706831.2,32.7377121,-117.0813872,32.73841950000001,-117.0813907
3183,SS-001263,86.78,53RD ST,QUINCE ST,REDWOOD ST,439.0,36.0,Residential,AC Improved,15804.0,Good,1371471.12,32.7365176,-117.0814114,32.7377121,-117.0813872
3184,SS-001264,53.913999999999994,53RD ST,KRENNING ST,QUINCE ST,220.0,36.0,Residential,AC Improved,7920.0,Fair,426998.88,32.7359158,-117.0814021,32.7365176,-117.0814114
3185,SS-001265,6.37,53RD ST,PRIVATE,KRENNING ST,117.3647,36.0,Residential,AC Improved,4225.1292,Poor,26914.073004,32.7562078,-117.0816592,32.7359158,-117.0814021
3186,SS-001266,89.816,53RD ST,GROVELAND DR,NARANJA ST,328.5972,36.0,Residential,AC Improved,11829.4992,Good,1062478.3001472,32.7076817,-117.0807379,32.70859160000001,-117.0807148
3187,SS-001267,82.536,53RD ST,IMPERIAL AV,GROVELAND DR,387.4828,36.0,Residential,AC Improved,13949.3808,Good,1151326.0937088002,32.7065648,-117.0807405,32.7076817,-117.0807379
3188,SS-001268,30.82,53RD ST,SANTA MARGARITA ST,IMPERIAL AV,358.0546,36.0,Residential,AC Improved,12889.9656,Poor,397268.73979200004,32.7071901,-117.0807159,32.7065648,-117.0807405
3189,SS-001269,70.92,54TH (E FTG) ST,MARVIN ST,STREAMVIEW DR,700.2313,19.0,Residential,AC Improved,13304.3947,Good,943547.672124,32.7412288,-117.0784723,32.7475387,-117.0795338
3190,SS-001270,60.888000000000005,54TH (E FTG) ST,CHOLLAS STATION RD,MARVIN ST,670.191,20.0,Residential,AC Improved,13403.82,Fair,816131.7921600001,32.7475387,-117.0795338,32.7412288,-117.0784723
3191,SS-001274,33.28,54TH (E FTG) ST,REDWOOD ST,CHOLLAS STATION RD,620.0073,20.0,Residential,AC Improved,12400.146,Poor,412676.85888,32.7475387,-117.0795338,32.7475387,-117.0795338
3192,SS-001275,55.03,54TH (E FTG) ST,54TH ST,REDWOOD ST,658.2839,19.0,Residential,AC Improved,12507.3941,Fair,688281.897323,32.7531447,-117.0782894,32.7475387,-117.0795338
3193,SS-001276,82.866,54TH (W FTG) ST,52ND ST,CHOLLAS PY,338.2785,28.0,Residential,AC Improved,9471.798,Good,784890.0130680001,32.7509597,-117.083847,32.7501042,-117.0792496
3194,SS-001277,76.9,54TH (W FTG) ST,53RD ST,52ND ST,295.1085,18.0,Residential,AC Improved,5311.953,Good,408489.1857,32.7475387,-117.0795338,32.7509597,-117.083847
3195,SS-001278,88.104,54TH (W FTG) ST,EASY ST,53RD ST,303.0591,18.0,Residential,AC Improved,5455.0638,Good,480612.9410352,32.7475387,-117.0795338,32.7475387,-117.0795338
3196,SS-001279,64.11,54TH (W FTG) ST,REDWOOD ST,EASY ST,1284.2633,32.0,Residential,AC Improved,41096.4256,Fair,2634691.845216,32.737873,-117.0797263,32.7475387,-117.0795338
3197,SS-001280,44.42,54TH (W FTG) ST,QUINCE ST,REDWOOD ST,438.056,32.0,Residential,AC Improved,14017.792,Fair,622670.3206399999,32.7475387,-117.0795338,32.737873,-117.0797263
3198,SS-001281,30.074,54TH (W FTG) ST,KRENNING ST,QUINCE ST,219.9999,32.0,Residential,AC Improved,7039.9968,Poor,211720.86376320003,32.7475387,-117.0795338,32.7475387,-117.0795338
3199,SS-001282,87.35,54TH (W FTG) ST,LAUREL ST,NUTMEG ST,1174.2252,32.0,Residential,AC Improved,37575.2064,Good,3282194.27904,32.7475387,-117.0795338,32.7475387,-117.0795338
3201,SS-001284,93.976,54TH (W FTG) ST,MC GANN DR,PIROTTE DR,676.2394,19.0,Residential,AC Improved,12848.5486,Good,1207455.2032336001,32.7272087,-117.0816225,32.7475387,-117.0795338
3202,SS-001285,87.416,54TH (W FTG) ST,HANIMAN DR,MC GANN DR,656.247,19.0,Residential,AC Improved,12468.693000000001,Good,1089963.2672879999,32.7475387,-117.0795338,32.7272087,-117.0816225
3203,SS-001286,92.23,54TH (W FTG) ST,NUTMEG ST,KRENNING ST,720.2784,32.0,Residential,AC Improved,23048.9088,Good,2125800.858624,32.7475387,-117.0795338,32.7475387,-117.0795338
3204,SS-001287,36.844,54TH PL,ORANGE AV,TROJAN AV,678.0,48.0,Collector,AC Improved,32544.0,Poor,1199051.136,32.7531447,-117.0782894,32.7548808,-117.0790674
3205,SS-001288,70.02,54TH PL,54TH ST,ORANGE AV,699.0,40.0,Collector,AC Improved,27960.0,Good,1957759.2,32.7515004,-117.0793744,32.7531447,-117.0782894
3206,SS-001289,100.0,54TH ST,FABER WY,MONTEZUMA RD,176.0,40.0,Collector,AC Improved,7040.0,Good,704000.0,32.7706537,-117.0796164,32.7710582,-117.0795036
3207,SS-001290,59.24,54TH ST,FABER WY,FABER WY,710.9276,40.0,Collector,AC Improved,28437.104,Fair,1684614.0409600001,32.7706537,-117.0796164,32.7706537,-117.0796164
3208,SS-001291,50.32,54TH ST,BAJA DR,FABER WY,521.6324,40.0,Collector,AC Improved,20865.296000000002,Fair,1049941.69472,32.7678011,-117.0797735,32.7706537,-117.0796164
3209,SS-001292,67.656,54TH ST,ADAMS AV,COLLIER AV,299.0419,40.0,Collector,AC Improved,11961.676000000001,Fair,809279.151456,32.7626728,-117.0793928,32.7634851,-117.0793891
3210,SS-001293,63.44,54TH ST,COLLWOOD BL,ADAMS AV,1327.6062,40.0,Residential,AC Improved,53104.248,Fair,3368933.49312,32.7590177,-117.0796272,32.7626728,-117.0793928
3211,SS-001296,81.792,54TH ST,EL CAJON BL,COLLWOOD BL,453.4593,66.0,Major,AC Improved,29928.3138,Good,2447896.6423296,32.7577835,-117.0794284,32.7590177,-117.0796272
3212,SS-001297,77.892,54TH ST,TROJAN AV,EL CAJON BL,1077.2899,33.0,Major,AC Improved,35550.5667,Good,2769104.7413964,32.75488130000001,-117.0794553,32.7577835,-117.0794284
3213,SS-001298,78.962,54TH ST,ORANGE AV,TROJAN AV,627.1348,33.0,Major,AC Improved,20695.4484,Good,1634153.9965608,32.7530864,-117.080312,32.75488130000001,-117.0794553
3214,SS-001299,71.226,54TH ST,54TH PL,ORANGE AV,570.1481,33.0,Major,AC Improved,18814.8873,Good,1340109.1628298,32.7515004,-117.0793744,32.7530864,-117.080312
3215,SS-001300,71.60600000000001,54TH ST,CHOLLAS PY,LEA ST,505.0247,32.0,Major,AC Improved,16160.7904,Good,1157209.5573824,32.744632,-117.0794241,32.7458603,-117.0795451
3216,SS-001301,84.04,54TH ST,MARVIN ST,STREAMVIEW DR,705.1595,60.0,Major,AC Improved,42309.57,Good,3555696.2628,32.7412172,-117.0794163,32.74292610000001,-117.0796168
3217,SS-001302,63.03,54TH ST,54TH (E FTG) RD,REDWOOD ST,589.2486,72.0,Major,AC Improved,42425.8992,Fair,2674104.4265759997,32.7475387,-117.0795338,32.7376953,-117.0795298
3218,SS-001304,85.88799999999999,54TH ST,OLIVE ST,COLLEGE GROVE DR,319.5536,60.0,Major,AC Improved,19173.216,Good,1646749.175808,32.7349337,-117.0795931,32.7359302,-117.0795851
3219,SS-001305,90.97200000000001,54TH ST,BILOXI ST,NUTMEG ST,635.1772,55.0,Major,AC Improved,34934.746,Good,3178083.713112,32.7321555,-117.0797287,32.7339,-117.0797344
3220,SS-001306,81.88,54TH ST,LAUREL ST,BILOXI ST,557.0726,55.0,Major,AC Improved,30638.993,Good,2508720.74684,32.7306535,-117.0797549,32.7321555,-117.0797287
3221,SS-001308,84.87,54TH ST,GRAPE ST,PIROTTE DR,1332.361,28.0,Collector,AC Improved,37306.108,Good,3166169.3859599996,32.7258554,-117.0830235,32.7288154,-117.080462
3222,SS-001309,63.172,54TH ST,54TH (E FTG) RD,GRAPE ST,482.0421,80.0,Collector,AC Improved,38563.367999999995,Fair,2436125.083296,32.7475387,-117.0795338,32.7258554,-117.0830235
3223,SS-001310,70.818,54TH ST,EUCLID AV,54TH (E FTG) RD,508.8151,26.0,Collector,AC Improved,13229.1926,Good,936864.9615468001,32.723449,-117.0848485,32.7475387,-117.0795338
3224,SS-001311,65.43,54TH ST,GROVELAND DR,NARANJA ST,373.3956,30.0,Collector,AC Improved,11201.868,Fair,732938.22324,32.7370754,-117.0803312,32.7070796,-117.0783864
3225,SS-001313,67.93,54TH ST,IMPERIAL AV,GROVELAND DR,241.0,30.0,Residential,PCC Jointed Concrete,7230.0,Fair,491133.9,32.7070796,-117.0783864,32.7370754,-117.0803312
3226,SS-001314,71.096,54TH ST,UNIVERSITY AV,54TH PL,1015.6713,36.0,Major,AC Improved,36564.1668,Good,2599566.0028128,32.7487286,-117.0793715,32.7515004,-117.0793744
3227,SS-001315,72.382,54TH ST,LEA ST,UNIVERSITY AV,1058.31,36.0,Major,AC Improved,38099.16,Good,2757693.39912,32.7458603,-117.0795451,32.7487286,-117.0793715
3228,SS-001318,72.888,54TH ST,STREAMVIEW DR,CHOLLAS PY,481.2669,72.0,Major,AC Improved,34651.2168,Good,2525657.8901183996,32.74292610000001,-117.0796168,32.744632,-117.0794241
3229,SS-001319,71.316,54TH ST,REDWOOD ST,MARVIN ST,1287.8154,80.0,Major,AC Improved,103025.23199999999,Good,7347347.445312,32.7376953,-117.0795298,32.7412172,-117.0794163
3230,SS-001320,70.502,54TH ST,NUTMEG ST,OLIVE ST,381.0476,55.0,Major,AC Improved,20957.618000000002,Good,1477553.984236,32.7339,-117.0797344,32.7349337,-117.0795931
3231,SS-001321,54.54,54TH ST,PIROTTE DR,LAUREL ST,727.6002,32.0,Collector,AC Improved,23283.2064,Fair,1269866.077056,32.7288154,-117.080462,32.7306535,-117.0797549
3233,SS-001323,63.718,54TH ST,SANTA MARGARITA ST,IMPERIAL AV,448.0,30.0,Residential,AC Improved,13440.0,Fair,856369.92,32.7070796,-117.0783864,32.7070796,-117.0783864
3234,SS-001324,46.15,55TH PL,DOROTHY DR,MARY LANE DR,420.0299,30.0,Residential,AC Improved,12600.896999999999,Fair,581531.39655,32.7690332,-117.0770832,32.7701976,-117.0770176
3235,SS-001325,61.618,55TH ST,LINDO PASEO,HARDY AV,291.2449,56.0,Major,AC Improved,16309.7144,Fair,1004971.9818991999,32.7717382,-117.0762286,32.7724702,-117.076198
3236,SS-001326,71.0,55TH ST,MARY LANE DR,MONTEZUMA RD,185.0972,36.0,Collector,AC Improved,6663.4992,Good,473108.4432,32.7697691,-117.0762848,32.7707659,-117.0762469
3237,SS-001327,67.0,55TH ST,MARY LANE DR,MARY LANE DR,151.0319,36.0,Residential,AC Improved,5437.1484,Fair,364288.9428,32.7697691,-117.0762848,32.7697691,-117.0762848
3238,SS-001328,57.33,55TH ST,DOROTHY DR,MARY LANE DR,275.1473,36.0,Residential,AC Improved,9905.3028,Fair,567871.009524,32.7690266,-117.0763039,32.7697691,-117.0762848
3239,SS-001329,86.1,55TH ST,COLLIER AV,REDLAND DR,466.1545,30.0,Residential,PCC Jointed Concrete,13984.635,Good,1204077.0735,32.7634569,-117.0760645,32.7659997,-117.0770902
3240,SS-001330,81.0,55TH ST,ADAMS AV,COLLIER AV,303.0265,30.0,Residential,PCC Jointed Concrete,9090.795,Good,736354.395,32.762648,-117.0760936,32.7634569,-117.0760645
3241,SS-001331,85.33200000000001,55TH ST,SIESTA DR,ADAMS AV,351.0911,30.0,Residential,PCC Jointed Concrete,10532.733,Good,898779.1723559999,32.7616942,-117.076101,32.762648,-117.0760936
3242,SS-001332,80.932,55TH ST,MADISON AV,SIESTA DR,299.2023,30.0,Residential,PCC Jointed Concrete,8976.069,Good,726451.216308,32.7608635,-117.0761147,32.7616942,-117.076101
3243,SS-001333,97.6,55TH ST,EL CAJON BL,GILBERT DR,145.0311,30.0,Residential,PCC Jointed Concrete,4350.933,Good,424651.0608,32.7583197,-117.0761142,32.7587111,-117.0761339
3244,SS-001334,76.12,55TH ST,MICHAEL ST,DWIGHT ST,253.0179,36.0,Residential,AC Improved,9108.6444,Good,693350.011728,32.7433611,-117.0771872,32.7440594,-117.0771847
3245,SS-001335,90.88799999999999,55TH ST,STREAMVIEW DR,MICHAEL ST,266.0,36.0,Residential,AC Improved,9576.0,Good,870343.488,32.742551,-117.0772152,32.7433611,-117.0771872
3246,SS-001336,80.686,55TH ST,MARVIN ST,STREAMVIEW DR,544.0,36.0,Residential,AC Improved,19584.0,Good,1580154.624,32.7412211,-117.0775739,32.742551,-117.0772152
3247,SS-001337,79.438,55TH ST,REDWOOD ST,MARVIN ST,903.0,36.0,Residential,AC Improved,32508.0,Good,2582370.504,32.7390713,-117.0767837,32.7412211,-117.0775739
3249,SS-001339,42.908,55TH ST,OLIVE ST,COLLEGE GROVE DR,298.0,36.0,Residential,AC Improved,10728.0,Fair,460317.024,32.7349145,-117.0773823,32.7356886,-117.0773784
3250,SS-001340,88.37799999999999,55TH ST,SEIFERT ST,OLIVE ST,329.0,36.0,Residential,AC Improved,11844.0,Good,1046749.032,32.7339934,-117.0774138,32.7349145,-117.0773823
3251,SS-001341,88.52,55TH ST,LAUREL ST,SEIFERT ST,787.0,36.0,Residential,AC Improved,28332.0,Good,2507948.64,32.7318377,-117.0774673,32.7339934,-117.0774138
3252,SS-001342,41.56,55TH ST,TIMOTHY DR,FAULCONER ST,245.1583,36.0,Residential,AC Improved,8825.6988,Fair,366796.042128,32.7287888,-117.0775251,32.7294444,-117.0775132
3253,SS-001343,66.85,55TH ST,HANNA ST,TIMOTHY DR,188.6584,36.0,Residential,AC Improved,6791.7024,Fair,454025.30543999997,32.7282757,-117.0774623,32.7287888,-117.0775251
3254,SS-001344,70.9,55TH ST,GRAPE ST,HANNA ST,269.4215,36.0,Residential,AC Improved,9699.174,Good,687671.4366,32.72762,-117.0770785,32.7282757,-117.0774623
3255,SS-001345,52.47,55TH ST,AMANDA ST,IMPERIAL AV,240.0186,28.0,Residential,AC Improved,6720.5208,Fair,352625.72637600004,32.7069779,-117.0764199,32.7076717,-117.076429
3256,SS-001346,38.0,55TH ST,SANTA MARGARITA ST,AMANDA ST,221.5851,28.0,Residential,AC Improved,6204.3828,Poor,235766.5464,32.7063694,-117.0764356,32.7069779,-117.0764199
3258,SS-001348,54.39,55TH ST,HARDY AV,REMINGTON RD,1053.7061,56.0,Major,AC Improved,59007.5416,Fair,3209420.187624,32.7724702,-117.076198,32.7751441,-117.0768929
3259,SS-001349,64.77199999999999,55TH ST,MONTEZUMA RD,LINDO PASEO,382.2943,56.0,Major,AC Improved,21408.4808,Fair,1386670.1183776,32.7707659,-117.0762469,32.7717382,-117.0762286
3260,SS-001350,14.24,55TH ST,REDLAND DR,REDLAND DR,608.5777,30.0,Residential,AC Improved,18257.331000000002,Poor,259984.39344,32.7659997,-117.0770902,32.7659997,-117.0770902
3261,SS-001351,78.2,55TH ST,GILBERT DR,MADISON AV,784.0008,30.0,Residential,PCC Jointed Concrete,23520.023999999998,Good,1839265.8768,32.7587111,-117.0761339,32.7608635,-117.0761147
3262,SS-001352,84.288,55TH ST,FAULCONER ST,LAUREL ST,867.2202,36.0,Residential,AC Improved,31219.9272,Good,2631465.2238336,32.7294444,-117.0775132,32.7318377,-117.0774673
3264,SS-001354,47.69,56TH ST,MADISON AV,ADAMS AV,646.0379,30.0,Residential,AC Improved,19381.137,Fair,924286.4235299999,32.760853,-117.0749021,32.7626466,-117.0748949
3265,SS-001356,51.62,56TH ST,ADELAIDE AV,EL CAJON BL,296.0291,30.0,Collector,AC Improved,8880.873,Fair,458430.66426000005,32.7576672,-117.0749656,32.7584797,-117.0749464
3266,SS-001357,71.58,56TH ST,VALE WY,TROJAN AV,309.0,40.0,Residential,AC Improved,12360.0,Good,884728.8,32.7541607,-117.0750978,32.7549366,-117.0750695
3268,SS-001359,89.764,56TH ST,KATHLEEN PL,LAUREL ST,853.9587,36.0,Residential,AC Improved,30742.5132,Good,2759570.9548848,32.7310349,-117.0748387,32.7330588,-117.075369
3270,SS-001361,65.71,56TH ST,GLEN RD,ROSWELL ST,400.1142,28.0,Local,AC Improved,11203.1976,Fair,736162.114296,32.7149695,-117.075809,32.7157211,-117.0757575
3271,SS-001363,38.77,56TH ST,56TH PL,MC HUGH ST,405.0,36.0,Residential,AC Improved,14580.0,Poor,565266.6,32.7122377,-117.0758261,32.713326,-117.0757719
3272,SS-001365,52.346000000000004,56TH ST,EL CAJON BL,MADISON AV,872.0576,30.0,Residential,AC Improved,26161.728,Fair,1369461.8138879999,32.7584797,-117.0749464,32.760853,-117.0749021
3273,SS-001366,46.218,56TH ST,MEADE AV,ADELAIDE AV,326.0553,30.0,Residential,AC Improved,9781.659,Fair,452088.715662,32.7567606,-117.0749567,32.7576672,-117.0749656
3274,SS-001367,41.93,56TH ST,TROJAN AV,MEADE AV,660.2734,40.0,Residential,AC Improved,26410.936,Fair,1107410.54648,32.7549366,-117.0750695,32.7567606,-117.0749567
3275,SS-001368,66.286,57TH ST,ROSWELL ST,LUBER ST,646.0,36.0,Local,AC Improved,23256.0,Fair,1541547.216,32.7163246,-117.0740881,32.7180889,-117.0740712
3276,SS-001369,77.08,57TH ST,BOLLENBACHER ST,ROSWELL ST,368.0,36.0,Local,AC Improved,13248.0,Good,1021155.84,32.7155278,-117.0734375,32.7163246,-117.0740881
3278,SS-001371,69.456,58TH ST,EL CAJON BL,MADISON AV,743.6655,30.0,Residential,AC Improved,22309.965,Fair,1549560.92904,32.758807,-117.0726323,32.7608378,-117.0727403
3279,SS-001372,66.1,58TH ST,ESTELLE ST,EL CAJON BL,180.0027,30.0,Residential,AC Improved,5400.081,Fair,356945.3541,32.7582716,-117.0728637,32.758807,-117.0726323
3280,SS-001373,56.428000000000004,58TH ST,VALE WY,MEADE AV,214.2334,36.0,Collector,AC Improved,7712.4024,Fair,435195.44262720004,32.7561554,-117.0729032,32.7567322,-117.0728979
3281,SS-001374,66.98,58TH ST,TROJAN AV,VALE WY,444.1127,36.0,Collector,AC Improved,15988.0572,Fair,1070880.0712559999,32.7549263,-117.0729156,32.7561554,-117.0729032
3282,SS-001375,81.52,58TH ST,SPARTAN DR,TROJAN AV,187.4513,40.0,Collector,AC Improved,7498.052,Good,611241.19904,32.75439679999999,-117.0728401,32.7549263,-117.0729156
3283,SS-001376,83.836,58TH ST,OLYMPIC ST,SPARTAN DR,483.6834,40.0,Collector,AC Improved,19347.336,Good,1622003.2608959998,32.7531256,-117.0718643,32.75439679999999,-117.0728401
3284,SS-001380,84.704,58TH ST,BATES ST,UNIVERSITY AV,506.7741,78.0,Collector,AC Improved,39528.3798,Good,3348211.8825792004,32.7479142,-117.0715612,32.7489912,-117.0726927
3285,SS-001381,77.64399999999999,58TH ST,DANDRIDGE LN,BATES ST,144.2282,40.0,Collector,AC Improved,5769.128000000001,Good,447938.17443199997,32.7476049,-117.0713173,32.7479142,-117.0715612
3286,SS-001382,95.4,58TH ST,ASCOT ST,DANDRIDGE LN,141.9252,40.0,Collector,AC Improved,5677.008000000001,Good,541586.5632,32.7471866,-117.0713037,32.7476049,-117.0713173
3287,SS-001383,95.5,58TH ST,HUGHES ST,ASCOT ST,652.1106,40.0,Collector,PCC Jointed Concrete,26084.424,Good,2491062.492,32.7454486,-117.0718161,32.7471866,-117.0713037
3288,SS-001384,51.97,58TH ST,DAY ST,HUGHES ST,730.4058,40.0,Collector,AC Improved,29216.232000000004,Fair,1518367.57704,32.7442259,-117.0735739,32.7454486,-117.0718161
3289,SS-001385,72.4,58TH ST,ADELAIDE AV,ESTELLE ST,226.1432,30.0,Residential,AC Improved,6784.295999999999,Good,491183.0304,32.7576441,-117.0728861,32.7582716,-117.0728637
3290,SS-001386,67.8,58TH ST,MEADE AV,ADELAIDE AV,333.006,30.0,Residential,AC Improved,9990.18,Fair,677334.204,32.7567322,-117.0728979,32.7576441,-117.0728861
3291,SS-001387,28.81,59TH ST,BARBAROSSA DR,BARBAROSSA DR,683.4587,36.0,Residential,AC Improved,24604.5132,Poor,708856.025292,32.76486149999999,-117.0710067,32.76486149999999,-117.0710067
3292,SS-001388,38.25,59TH ST,ADAMS AV,BARBAROSSA DR,186.0272,36.0,Residential,AC Improved,6696.9792,Poor,256159.4544,32.7626432,-117.0707796,32.76486149999999,-117.0710067
3293,SS-001389,34.49,59TH ST,MADISON AV,ADAMS AV,654.0275,30.0,Residential,AC Improved,19620.825,Poor,676722.25425,32.7608425,-117.0707749,32.7626432,-117.0707796
3294,SS-001390,25.86,59TH ST,EL CAJON BL,MADISON AV,432.5728,30.0,Residential,AC Improved,12977.184,Poor,335589.97824,32.7597001,-117.0704819,32.7608425,-117.0707749
3296,SS-001392,26.311999999999998,59TH ST,ADELAIDE AV,ESTELLE ST,230.0346,30.0,Residential,AC Improved,6901.0380000000005,Poor,181580.111856,32.7576035,-117.0702719,32.7582316,-117.070252
3297,SS-001393,48.82,59TH ST,KENWOOD ST,BROOKLYN AV,694.0259,30.0,Residential,AC Improved,20820.777,Fair,1016470.33314,32.7112281,-117.0699661,32.7131806,-117.0699762
3298,SS-001394,55.06,59TH ST,MARKET ST,KENWOOD ST,446.2523,30.0,Collector,AC Improved,13387.569,Fair,737119.54914,32.710021,-117.0699808,32.7112281,-117.0699661
3299,SS-001395,70.24,59TH ST,KINGS VIEW CT,BALMORAL DR,272.3607,30.0,Residential,PCC Jointed Concrete,8170.821,Good,573918.46704,32.7072537,-117.0708113,32.7079913,-117.070822
3300,SS-001396,98.0,59TH ST,FENNELL AV,KINGS VIEW CT,90.0,32.0,Residential,AC Improved,2880.0,Good,282240.0,32.7072537,-117.0708113,32.7072537,-117.0708113
3302,SS-001400,54.983999999999995,60TH ST,EL CAJON BL,ADAMS AV,762.0060000000001,20.0,Residential,AC Improved,15240.12,Fair,837962.75808,32.7607136,-117.0682073,32.7626005,-117.0687964
3303,SS-001401,32.166,60TH ST,CAROL ST,EL CAJON BL,318.0063,36.0,Collector,AC Improved,11448.2268,Poor,368243.6632488,32.75986450000001,-117.0682322,32.7607136,-117.0682073
3304,SS-001402,31.56,60TH ST,BRADFORD ST,CAROL ST,254.071,36.0,Collector,AC Improved,9146.556,Poor,288665.30736,32.7591728,-117.0682544,32.75986450000001,-117.0682322
3305,SS-001403,64.84,60TH ST,ESTELLE ST,ESTELLE ST,100.0,36.0,Collector,AC Improved,3600.0,Fair,233424.0,32.7583525,-117.0682584,32.7583525,-117.0682584
3306,SS-001405,66.22800000000001,60TH ST,ADELAIDE AV,ESTELLE ST,179.1723,40.0,Collector,AC Improved,7166.892,Fair,474648.923376,32.7576792,-117.0685483,32.7583525,-117.0682584
3307,SS-001406,78.436,60TH ST,TROJAN AV,ADELAIDE AV,235.1044,40.0,Collector,AC Improved,9404.176,Good,737625.948736,32.7569583,-117.0686263,32.7576792,-117.0685483
3308,SS-001407,70.43,60TH ST,MEADE AV,TROJAN AV,46.0,40.0,Residential,AC Improved,1840.0,Good,129591.2,32.7569583,-117.0686263,32.7569583,-117.0686263
3310,SS-001409,9.07,60TH ST,ROCK PL,UNIVERSITY AV,231.2252,60.0,Collector,AC Improved,13873.511999999999,Poor,125832.75384,32.751469,-117.0667559,32.7520494,-117.0668193
3311,SS-001410,22.5,60TH ST,ROCK ST,ROCK PL,161.3103,41.0,Residential,AC Improved,6613.7223,Poor,148808.75175,32.7510468,-117.0667086,32.751469,-117.0667559
3312,SS-001412,85.104,60TH ST,MICHAEL ST,DWIGHT ST,253.0713,36.0,Residential,AC Improved,9110.5668,Good,775345.6769472,32.7428525,-117.0671047,32.7435339,-117.067085
3313,SS-001413,91.64,60TH ST,THORN ST,MICHAEL ST,253.0496,36.0,Residential,AC Improved,9109.7856,Good,834820.752384,32.7421435,-117.0671035,32.7428525,-117.0671047
3314,SS-001414,85.84,60TH ST,BARK ST,THORN ST,281.1136,36.0,Residential,AC Improved,10120.0896,Good,868708.491264,32.7413702,-117.0671168,32.7421435,-117.0671035
3315,SS-001415,97.6,60TH ST,REDWOOD ST,BARK ST,147.0136,36.0,Residential,AC Improved,5292.4896,Good,516546.98496000003,32.7406695,-117.0671218,32.7413702,-117.0671168
3316,SS-001416,83.27600000000001,60TH ST,REDWOOD ST,REDWOOD ST,115.0175,36.0,Residential,AC Improved,4140.63,Good,344815.10388,32.7406695,-117.0671218,32.7406695,-117.0671218
3318,SS-001418,83.46799999999999,60TH ST,FULMAR ST,FEDERAL BL,255.9998,40.0,Collector,AC Improved,10239.992,Good,854711.6522560001,32.7265392,-117.0680698,32.7272547,-117.0680724
3319,SS-001419,62.181999999999995,60TH ST,CHAUMONT DR,FULMAR ST,709.2624,40.0,Collector,PCC Jointed Concrete,28370.496,Fair,1764134.1822720002,32.7246299,-117.0684168,32.7265392,-117.0680698
3320,SS-001421,74.096,60TH ST,TOOLEY ST,CHAUMONT DR,272.9367,40.0,Collector,AC Improved,10917.468,Good,808940.708928,32.7238997,-117.0681531,32.7246299,-117.0684168
3321,SS-001422,74.73,60TH ST,UPLAND ST,DIPPER ST,538.0008,40.0,Collector,AC Improved,21520.032000000003,Good,1608191.99136,32.7211734,-117.0679989,32.7226933,-117.0679964
3322,SS-001423,73.22399999999999,60TH ST,GRAVITY WY,UPLAND ST,165.1813,40.0,Collector,AC Improved,6607.2519999999995,Good,483809.42044799996,32.7200973,-117.0683056,32.7211734,-117.0679989
3323,SS-001425,66.952,60TH ST,WEAVER ST,BURIAN ST,819.6998,56.0,Collector,AC Unimproved,45903.1888,Fair,3073310.2965376,32.7173884,-117.0679976,32.7196403,-117.0679995
3324,SS-001426,66.07600000000001,60TH ST,RADIO DR,WEAVER ST,276.0019,56.0,Collector,AC Unimproved,15456.1064,Fair,1021277.6864864001,32.7166585,-117.0679673,32.7173884,-117.0679976
3325,SS-001428,73.47399999999999,60TH ST,WUNDERLIN AV,BROADWAY,300.0001,30.0,Collector,AC Improved,9000.003,Good,661266.220422,32.714514,-117.0679673,32.7154285,-117.0679742
3326,SS-001429,69.304,60TH ST,BROOKLYN AV,WUNDERLIN AV,498.0,36.0,Collector,AC Improved,17928.0,Fair,1242482.112,32.7131422,-117.0679491,32.714514,-117.0679673
3327,SS-001430,74.806,60TH ST,KENWOOD ST,BROOKLYN AV,686.0466,36.0,Collector,AC Improved,24697.6776,Good,1847534.4705456002,32.711224,-117.0679503,32.7131422,-117.0679491
3328,SS-001431,71.092,60TH ST,AKINS AV,KENWOOD ST,576.1252,36.0,Collector,AC Improved,20740.5072,Good,1474484.1378624,32.7096934,-117.0680118,32.711224,-117.0679503
3329,SS-001432,49.93600000000001,60TH ST,ESTELLE ST,BRADFORD ST,289.529,36.0,Collector,AC Improved,10423.044,Fair,520485.125184,32.7583525,-117.0682584,32.7591728,-117.0682544
3331,SS-001434,64.422,60TH ST,DIPPER ST,TOOLEY ST,460.7919,40.0,Collector,AC Unimproved,18431.676,Fair,1187405.4312719998,32.7226933,-117.0679964,32.7238997,-117.0681531
3332,SS-001435,20.0,60TH ST,IMPERIAL AV,AKINS AV,122.0071,36.0,Collector,AC Improved,4392.2556,Poor,87845.112,32.7093872,-117.0680052,32.7096934,-117.0680118
3333,SS-001436,74.266,61ST ST,AKINS AV,BROOKLYN AV,1203.0701,40.0,Residential,AC Unimproved,48122.804000000004,Good,3573888.161864,32.709848,-117.0667261,32.7131458,-117.0666922
3334,SS-001437,87.14200000000001,61ST ST,NANCITA CT,IMPERIAL AV,916.2048,40.0,Collector,PCC Jointed Concrete,36648.192,Good,3193596.747264,32.7069716,-117.0667544,32.7095318,-117.0667751
3335,SS-001438,58.66,61ST ST,BENSON AV,FENNELL AV,210.0213,40.0,Collector,PCC Jointed Concrete,8400.851999999999,Fair,492793.97832,32.7013283,-117.0670623,32.7057567,-117.0667683
3336,SS-001439,67.78399999999999,61ST ST,FLIPPER DR,BENSON AV,473.1057,40.0,Collector,AC Improved,18924.228,Fair,1282759.870752,32.7038794,-117.0667883,32.7013283,-117.0670623
3337,SS-001440,74.77600000000001,61ST ST,FENNELL AV,NANCITA CT,432.0306,40.0,Collector,AC Improved,17281.224,Good,1292220.805824,32.7057567,-117.0667683,32.7069716,-117.0667544
3338,SS-001441,62.48,62ND ST,STEWART ST,HOBART ST,269.0299,36.0,Residential,AC Improved,9685.0764,Fair,605123.5734720001,32.7658609,-117.065012,32.7665936,-117.0650024
3339,SS-001442,73.626,62ND ST,ROSE ST,STEWART ST,255.0077,36.0,Residential,AC Improved,9180.2772,Good,675907.0891272,32.7651935,-117.0650428,32.7658609,-117.065012
3340,SS-001443,74.33,62ND ST,MADELINE ST,ACORN ST,287.028,36.0,Residential,AC Improved,10333.008,Good,768052.4846399999,32.7596497,-117.064511,32.7604302,-117.0645058
3341,SS-001444,52.33,62ND ST,ESTELLE ST,MADELINE ST,302.0,36.0,Residential,AC Improved,10872.0,Fair,568931.76,32.758806,-117.0644854,32.7596497,-117.064511
3342,SS-001445,85.484,62ND ST,AKINS AV,BROOKLYN AV,1079.0165,40.0,Residential,AC Improved,43160.66,Good,3689545.8594400003,32.7101856,-117.0639945,32.7131456,-117.0639853
3343,SS-001446,50.864,62ND ST,STANLEY AV,EL CAJON BL,575.1669999999999,40.0,Collector,AC Improved,23006.68,Fair,1170211.7715200002,32.7614305,-117.064127,32.7629918,-117.06462
3344,SS-001447,60.824,62ND ST,ACORN ST,STANLEY AV,327.3293,40.0,Collector,AC Improved,13093.171999999999,Fair,796379.093728,32.7604302,-117.0645058,32.7614305,-117.064127
3345,SS-001448,96.0,62ND ST,IMPERIAL AV,AKINS AV,133.0067,40.0,Collector,AC Improved,5320.268,Good,510745.72799999994,32.709881,-117.0639715,32.7101856,-117.0639945
3346,SS-001449,98.0,63RD ST,BROCKBANK PL,TIPTON ST,98.3125,36.0,Residential,AC Improved,3539.25,Good,346846.5,32.7714849,-117.0630263,32.77155,-117.0627222
3347,SS-001450,82.49600000000001,63RD ST,MONTEZUMA RD,BROCKBANK PL,564.4198,36.0,Residential,AC Improved,20319.1128,Good,1676245.5295488,32.770497,-117.0643533,32.7714849,-117.0630263
3348,SS-001451,90.626,63RD ST,MARY LANE DR,MONTEZUMA RD,237.3813,36.0,Collector,AC Improved,8545.7268,Good,774465.0369768001,32.7699234,-117.0647283,32.770497,-117.0643533
3349,SS-001452,81.736,63RD ST,DOROTHY DR,MARY LANE DR,248.2014,36.0,Collector,AC Improved,8935.2504,Good,730331.6266944,32.76923,-117.0646804,32.7699234,-117.0647283
3350,SS-001453,82.00200000000001,63RD ST,PONTIAC ST,DOROTHY DR,255.3174,36.0,Collector,AC Improved,9191.4264,Good,753715.3476528,32.768562,-117.0646426,32.76923,-117.0646804
3351,SS-001454,41.693999999999996,63RD ST,MESITA DR,PONTIAC ST,236.0296,36.0,Collector,AC Improved,8497.0656,Fair,354276.6531264,32.768006,-117.0641729,32.768562,-117.0646426
3352,SS-001455,75.932,63RD ST,HOBART ST,MESITA DR,600.7428,36.0,Collector,AC Improved,21626.7408,Good,1642161.6824256,32.7666546,-117.0630908,32.768006,-117.0641729
3353,SS-001456,72.0,63RD ST,CATOCTIN DR,HOBART ST,295.4471,36.0,Collector,AC Improved,10636.0956,Good,765798.8832,32.7658929,-117.0627065,32.7666546,-117.0630908
3354,SS-001457,71.406,63RD ST,CHOCTAW DR,CATOCTIN DR,132.444,36.0,Collector,AC Improved,4767.984,Good,340462.665504,32.765595,-117.0628582,32.7658929,-117.0627065
3355,SS-001458,87.568,63RD ST,ROSE ST,CHOCTAW DR,153.8438,36.0,Collector,AC Improved,5538.3768,Good,484984.5796224,32.7651784,-117.0630071,32.765595,-117.0628582
3356,SS-001459,78.87,63RD ST,EL CAJON BL,ROSE ST,565.2769,36.0,Collector,AC Improved,20349.9684,Good,1605002.007708,32.7636818,-117.0631808,32.7651784,-117.0630071
3357,SS-001460,85.94,63RD ST,WUNDERLIN AV,BROADWAY,494.004,40.0,Residential,AC Improved,19760.16,Good,1698188.1504,32.7145123,-117.0625578,32.7158668,-117.0625501
3358,SS-001461,82.876,63RD ST,BROOKLYN AV,WUNDERLIN AV,497.004,40.0,Residential,AC Improved,19880.16,Good,1647588.14016,32.713147,-117.0625524,32.7145123,-117.0625578
3359,SS-001462,85.37200000000001,63RD ST,AKINS AV,BROOKLYN AV,1014.0078,40.0,Residential,AC Improved,40560.312000000005,Good,3462714.956064,32.7103572,-117.062556,32.713147,-117.0625524
3360,SS-001463,24.96,63RD ST,SHAULES AV,MADRONE AV,411.0002,40.0,Residential,AC Unimproved,16440.008,Poor,410342.59968000004,32.7079478,-117.0623666,32.7089824,-117.0623467
3361,SS-001465,49.974,63RD ST,STANLEY AV,EL CAJON BL,734.1338,40.0,Residential,AC Improved,29365.352000000003,Fair,1467504.100848,32.7616955,-117.0625866,32.7636818,-117.0631808
3362,SS-001466,74.908,63RD ST,ACORN ST,STANLEY AV,439.0004,36.0,Residential,AC Improved,15804.0144,Good,1183847.1106752,32.760599,-117.062162,32.7616955,-117.0625866
3363,SS-001467,56.72,63RD ST,MADELINE ST,ACORN ST,355.0585,40.0,Residential,AC Improved,14202.34,Fair,805556.7248,32.7596336,-117.0640062,32.760599,-117.062162
3364,SS-001469,33.234,63RD ST,MADRONE AV,IMPERIAL AV,372.0337,40.0,Residential,AC Improved,14881.348,Poor,494566.71943199995,32.7089824,-117.0623467,32.7099341,-117.0623455
3365,SS-001470,50.268,64TH ST,CATOCTIN DR,MESITA DR,522.716,36.0,Collector,AC Improved,18817.776,Fair,945931.963968,32.7670626,-117.0615382,32.7683478,-117.0622815
3367,SS-001472,76.558,65TH ST,WUNDERLIN AV,BROADWAY,490.0255,40.0,Collector,AC Improved,19601.02,Good,1500614.88916,32.7145271,-117.0580528,32.7158636,-117.0580534
3368,SS-001473,70.544,65TH ST,BROOKLYN AV,WUNDERLIN AV,503.0159,40.0,Collector,AC Improved,20120.636000000002,Good,1419390.145984,32.7131445,-117.0580506,32.7145271,-117.0580528
3369,SS-001474,72.274,65TH ST,OTAY ST,BROOKLYN AV,472.0382,40.0,Collector,AC Improved,18881.528000000002,Good,1364643.554672,32.7117879,-117.0580638,32.7131445,-117.0580506
3370,SS-001475,92.0,65TH ST,HERRICK ST,OTAY ST,152.0,40.0,Collector,AC Improved,6080.0,Good,559360.0,32.7114116,-117.058066,32.7117879,-117.0580638
3371,SS-001476,43.0,65TH ST,AKINS AV,HERRICK ST,186.0107,40.0,Collector,AC Improved,7440.428000000001,Fair,319938.404,32.7109108,-117.0580697,32.7114116,-117.058066
3372,SS-001477,30.0,65TH ST,IMPERIAL AV,AKINS AV,137.4831,40.0,Collector,AC Improved,5499.3240000000005,Poor,164979.72,32.7104938,-117.0579652,32.7109108,-117.0580697
3374,SS-001479,88.22,66TH ST,HERRICK ST,BROOKLYN AV,598.5033,33.0,Residential,AC Improved,19750.6089,Good,1742398.7171580002,32.7115032,-117.0558079,32.7131636,-117.0558035
3375,SS-001480,74.0,66TH ST,AKINS AV,HERRICK ST,113.3051,33.0,Residential,AC Improved,3739.0683,Good,276691.0542,32.7111889,-117.0558188,32.7115032,-117.0558079
3377,SS-001483,77.652,67TH ST,LAMBERT LN,RICHARD ST,790.063,36.0,Residential,AC Improved,28442.267999999996,Good,2208598.994736,32.7716015,-117.0535656,32.7737663,-117.0536167
3378,SS-001484,71.548,67TH ST,SARANAC ST,LAMBERT LN,190.0108,36.0,Residential,AC Improved,6840.3888,Good,489416.13786240004,32.7707104,-117.0535708,32.7716015,-117.0535656
3379,SS-001485,74.86399999999999,67TH ST,SARANAC ST,SARANAC ST,136.0144,36.0,Residential,AC Improved,4896.5184,Good,366572.9534976,32.7707104,-117.0535708,32.7707104,-117.0535708
3380,SS-001486,81.872,67TH ST,MOHAWK ST,MOHAWK ST,87.0059,40.0,Residential,AC Improved,3480.236,Good,284933.88179200003,32.7698881,-117.0536811,32.7698881,-117.0536811
3381,SS-001487,74.072,67TH ST,AMHERST ST,AMHERST ST,352.3854,30.0,Collector,AC Improved,10571.562,Good,783056.740464,32.7675172,-117.0538515,32.7675172,-117.0538515
3382,SS-001488,75.64,67TH ST,SHANNON AV,AMHERST ST,331.0,24.0,Residential,AC Improved,7944.0,Good,600884.16,32.7658966,-117.0536068,32.7675172,-117.0538515
3383,SS-001489,82.92,67TH ST,ROSEFIELD DR,SHANNON AV,158.0,30.0,Residential,AC Improved,4740.0,Good,393040.8,32.765542,-117.0533192,32.7658966,-117.0536068
3384,SS-001490,78.63,67TH ST,SOLITA AV,ROSEFIELD DR,830.0,35.0,Residential,AC Improved,29050.0,Good,2284201.5,32.7632748,-117.0533237,32.765542,-117.0533192
3385,SS-001491,86.516,67TH ST,VALENCIA DR,SOLITA AV,706.0,35.0,Residential,AC Improved,24710.0,Good,2137810.36,32.7613237,-117.053364,32.7632748,-117.0533237
3386,SS-001492,78.104,67TH ST,PATRIA DR,VALENCIA DR,253.0,35.0,Residential,AC Improved,8855.0,Good,691610.92,32.7606452,-117.0536113,32.7613237,-117.053364
3387,SS-001493,71.62,67TH ST,AKINS AV,BROOKLYN AV,635.0788,36.0,Residential,PCC Jointed Concrete,22862.8368,Good,1637436.371616,32.7113678,-117.0542428,32.7131484,-117.0542282
3388,SS-001494,83.064,67TH ST,MOHAWK ST,SARANAC ST,342.0023,40.0,Residential,AC Improved,13680.091999999999,Good,1136323.1618879999,32.7698881,-117.0536811,32.7707104,-117.0535708
3389,SS-001495,85.848,67TH ST,EL CAJON BL,MOHAWK ST,411.0125,40.0,Collector,AC Improved,16440.5,Good,1411384.044,32.7684689,-117.0536574,32.7698881,-117.0536811
3390,SS-001496,85.75200000000001,67TH ST,AMHERST ST,EL CAJON BL,369.7464,30.0,Residential,AC Improved,11092.392,Good,951194.798784,32.7675172,-117.0538515,32.7684689,-117.0536574
3392,SS-001498,89.83200000000001,68TH ST,MOHAWK ST,SARANAC ST,385.1425,36.0,Residential,AC Improved,13865.13,Good,1245532.35816,32.7697098,-117.0515308,32.7707559,-117.0515794
3393,SS-001500,86.81200000000001,68TH ST,SOLITA AV,ROSEFIELD DR,846.1278,36.0,Residential,AC Improved,30460.6008,Good,2644345.6766496003,32.7632735,-117.0511269,32.7655786,-117.0510854
3394,SS-001501,10.64,68TH ST,BROOKLYN AV,WUNDERLIN AV,502.004,36.0,Residential,AC Improved,18072.144,Poor,192287.61216,32.71313920000001,-117.0514611,32.7145169,-117.0514788
3395,SS-001502,50.5,68TH ST,AKINS AV,BROOKLYN AV,508.0,36.0,Residential,AC Improved,18288.0,Fair,923544.0,32.7117254,-117.0514667,32.71313920000001,-117.0514611
3396,SS-001503,87.38600000000001,68TH ST,JAMACHA RD,IMPERIAL AV,294.0154,39.0,Collector,AC Improved,11466.6006,Good,1002020.3600316,32.7106143,-117.0509639,32.71136,-117.0509649
3397,SS-001504,38.6,68TH ST,MADRONE AV,JAMACHA RD,660.1939,20.0,Residential,AC Improved,13203.878,Poor,509669.6908,32.7088027,-117.0509974,32.7106143,-117.0509639
3398,SS-001505,64.304,68TH ST,PALO ALTO LN,MADRONE AV,682.4961,36.0,Residential,AC Improved,24569.8596,Fair,1579940.2517183998,32.7069365,-117.0510606,32.7088027,-117.0509974
3399,SS-001506,62.398,68TH ST,BENSON AV,PALO ALTO LN,687.3718,36.0,Residential,AC Improved,24745.3848,Fair,1544062.5207504,32.7050339,-117.0509104,32.7069365,-117.0510606
3400,SS-001507,84.384,68TH ST,EL CAJON BL,MOHAWK ST,388.034,36.0,Residential,AC Improved,13969.223999999998,Good,1178778.998016,32.7686778,-117.0514983,32.7697098,-117.0515308
3401,SS-001508,30.69,68TH ST,AMHERST ST,EL CAJON BL,392.0331,40.0,Residential,AC Improved,15681.323999999999,Poor,481259.83356000006,32.7675628,-117.0511077,32.7686778,-117.0514983
3402,SS-001509,40.466,68TH ST,ROSEFIELD DR,AMHERST ST,718.0351,36.0,Residential,AC Improved,25849.2636,Fair,1046016.3008375999,32.7655786,-117.0510854,32.7675628,-117.0511077
3403,SS-001510,80.28,68TH ST,UNIVERSITY AV,CITY BOUNDARY,164.3472,30.0,Residential,AC Improved,4930.416,Good,395813.79648,32.7552426,-117.0499276,32.7690591,-117.0516376
3404,SS-001511,58.016000000000005,69TH PL,EBERHART ST,AMHERST ST,426.0001,30.0,Residential,AC Improved,12780.003,Fair,741444.654048,32.7664955,-117.0478028,32.7676123,-117.0477813
3405,SS-001512,37.692,69TH ST,MANDALAY RD,JULIE ST,350.9211,36.0,Residential,AC Improved,12633.1596,Poor,476169.05164320004,32.7727849,-117.0492244,32.773706,-117.0494253
3406,SS-001513,25.62,69TH ST,SARANAC ST,MANDALAY RD,725.9238,36.0,Residential,AC Improved,26133.2568,Poor,669534.039216,32.7707775,-117.0492753,32.7727849,-117.0492244
3407,SS-001515,79.93,69TH ST,DONNA WY,UNIVERSITY AV,1177.1874,32.0,Residential,AC Improved,37669.9968,Good,3010962.8442240003,32.7519624,-117.0491596,32.7552922,-117.0491372
3408,SS-001516,84.39,69TH ST,CELIA VISTA DR,DONNA WY,618.1374,32.0,Residential,AC Improved,19780.3968,Good,1669267.685952,32.7502561,-117.0496069,32.7519624,-117.0491596
3409,SS-001518,89.53200000000001,69TH ST,HANNIBAL PL,CELIA VISTA DR,256.0701,36.0,Residential,AC Improved,9218.5236,Good,825352.8549551999,32.7495539,-117.0496099,32.7502561,-117.0496069
3410,SS-001519,85.234,69TH ST,MARLOWE DR,HANNIBAL PL,672.1458,36.0,Residential,AC Improved,24197.2488,Good,2062428.3042192,32.747718,-117.0496301,32.7495539,-117.0496099
3411,SS-001520,38.42,69TH ST,VERONICA AV,MARLOWE DR,317.0395,36.0,Residential,AC Improved,11413.421999999999,Poor,438503.67324,32.7468367,-117.0496656,32.747718,-117.0496301
3412,SS-001521,83.2,69TH ST,WAITE DR,VERONICA AV,253.0179,36.0,Residential,AC Improved,9108.6444,Good,757839.2140800001,32.7461552,-117.0492382,32.7468367,-117.0496656
3413,SS-001522,78.712,69TH ST,ROCKLAND ST,WAITE DR,255.0704,18.0,Residential,AC Improved,4591.2672,Good,361387.8238464,32.7454483,-117.0492394,32.7461552,-117.0492382
3414,SS-001523,63.898,69TH ST,DUCHESS ST,ROCKLAND ST,250.0721,18.0,Residential,AC Improved,4501.2978,Fair,287623.9268244,32.7447561,-117.0492635,32.7454483,-117.0492394
3415,SS-001524,68.846,69TH ST,SUFFOLK DR,DUCHESS ST,254.0736,18.0,Residential,AC Improved,4573.3248,Fair,314855.1191808,32.7440517,-117.0492693,32.7447561,-117.0492635
3416,SS-001526,82.0,69TH ST,LIVINGSTON ST,SUFFOLK DR,172.0465,18.0,Residential,AC Improved,3096.837,Good,253940.634,32.7436878,-117.0492882,32.7440517,-117.0492693
3417,SS-001527,18.53,69TH ST,WUNDERLIN AV,CITY BOUNDARY,241.0199,56.0,Residential,AC Unimproved,13497.1144,Poor,250101.52983200003,32.7145208,-117.0493513,32.7159378,-117.0493676
3418,SS-001528,45.343999999999994,69TH ST,BROOKLYN AV,WUNDERLIN AV,504.0486,28.0,Residential,AC Improved,14113.3608,Fair,639956.2321151999,32.713141,-117.04936,32.7145208,-117.0493513
3419,SS-001529,17.8,69TH ST,AKINS AV,BROOKLYN AV,213.021,28.0,Residential,AC Improved,5964.588000000001,Poor,106169.6664,32.712514,-117.0493544,32.713141,-117.04936
3420,SS-001530,93.80799999999999,69TH ST,JAMACHA RD,IMPERIAL AV,535.6504,40.0,Collector,AC Improved,21426.016,Good,2009931.708928,32.7106415,-117.0493365,32.7121535,-117.0493083
3421,SS-001531,78.64,69TH ST,MADRONE AV,JAMACHA RD,690.7652,40.0,Collector,AC Improved,27630.607999999997,Good,2172871.0131200003,32.7087618,-117.0493082,32.7106415,-117.0493365
3422,SS-001532,87.816,69TH ST,ELVADO WY,MADRONE AV,1245.8954,40.0,Collector,AC Improved,49835.816,Good,4376382.017856,32.7055649,-117.0485658,32.7087618,-117.0493082
3423,SS-001533,86.47200000000001,69TH ST,BENSON AV,ELVADO WY,219.1169,40.0,Residential,AC Improved,8764.676,Good,757899.063072,32.7049902,-117.0488212,32.7055649,-117.0485658
3424,SS-001534,92.72399999999999,69TH ST,BENSON AV,BENSON AV,199.01,40.0,Residential,AC Improved,7960.4,Good,738120.1296,32.7049902,-117.0488212,32.7049902,-117.0488212
3425,SS-001535,88.008,69TH ST,ELY CR,BENSON AV,283.01599999999996,40.0,Residential,AC Improved,11320.64,Good,996306.8851200001,32.7036767,-117.0488048,32.7049902,-117.0488212
3426,SS-001536,90.726,69TH ST,SKYLINE DR,ELY CR,371.0053,40.0,Residential,AC Improved,14840.212,Good,1346393.073912,32.7026756,-117.048822,32.7036767,-117.0488048
3427,SS-001537,44.292,69TH ST,MOHAWK ST,SARANAC ST,390.3895,36.0,Residential,AC Improved,14054.021999999999,Fair,622480.7424239999,32.7697333,-117.0493183,32.7707775,-117.0492753
3428,SS-001538,11.21,69TH ST,EL CAJON BL,MOHAWK ST,388.0648,36.0,Residential,AC Improved,13970.3328,Poor,156607.43068800002,32.7687143,-117.0492983,32.7697333,-117.0493183
3429,SS-001539,16.33,69TH ST,AMHERST ST,EL CAJON BL,393.1152,40.0,Residential,AC Improved,15724.608,Poor,256782.84864,32.7675985,-117.0492387,32.7687143,-117.0492983
3430,SS-001540,34.44,69TH ST,IMPERIAL AV,AKINS AV,165.4085,42.0,Collector,AC Improved,6947.156999999999,Poor,239260.08708000003,32.7121535,-117.0493083,32.712514,-117.0493544
3432,SS-001542,53.21,70TH ST,ALVARADO RD,I-8 EB OFF RA,116.6152,48.0,Major,AC Improved,5597.5296,Fair,297844.550016,32.7732915,-117.0466714,32.763516,-117.0467983
3433,SS-001543,53.146,70TH ST,MOHAWK ST,SARANAC ST,391.14,32.0,Major,AC Improved,12516.48,Fair,665200.84608,32.7697695,-117.0470308,32.7708362,-117.0470111
3434,SS-001544,49.544,70TH ST,EL CAJON BL,MOHAWK ST,393.0446,32.0,Major,AC Improved,12577.4272,Fair,623136.0531968,32.7687516,-117.0471291,32.7697695,-117.0470308
3435,SS-001545,64.308,70TH ST,AMHERST ST,EL CAJON BL,392.1152,68.0,Major,AC Improved,26663.8336,Fair,1714697.8111488002,32.7676334,-117.0469551,32.7687516,-117.0471291
3437,SS-001547,47.611999999999995,71ST ST,MOHAWK ST,SARANAC ST,386.0335,36.0,Residential,AC Improved,13897.206,Fair,661673.7720720001,32.7698171,-117.0448709,32.7708475,-117.0448849
3438,SS-001548,23.504,71ST ST,EL CAJON BL,MOHAWK ST,391.0207,36.0,Collector,AC Improved,14076.7452,Poor,330859.8191808,32.7686766,-117.0448443,32.7698171,-117.0448709
3439,SS-001549,61.356,71ST ST,AMHERST ST,EL CAJON BL,390.046,40.0,Collector,AC Improved,15601.84,Fair,957266.49504,32.7676729,-117.0448038,32.7686766,-117.0448443
3440,SS-001550,26.42,72ND ST,MOHAWK ST,SARANAC ST,382.0341,36.0,Residential,AC Improved,13753.2276,Poor,363360.273192,32.7698497,-117.0426688,32.7708987,-117.0426897
3441,SS-001551,48.42,72ND ST,EL CAJON BL,MOHAWK ST,390.0268,36.0,Collector,AC Improved,14040.9648,Fair,679863.5156159999,32.7687254,-117.0426288,32.7698497,-117.0426688
3442,SS-001552,53.96,72ND ST,AMHERST ST,EL CAJON BL,390.0333,40.0,Residential,AC Improved,15601.332,Fair,841847.87472,32.7677049,-117.0425993,32.7687254,-117.0426288
3443,SS-001553,13.0,73RD ST,MOHAWK ST,MOHAWK ST,124.0041,38.0,Residential,AC Improved,4712.1558,Poor,61258.0254,32.769535,-117.0404258,32.769535,-117.0404258
3444,SS-001554,46.016000000000005,73RD ST,MOHAWK ST,SARANAC ST,387.0525,38.0,Residential,AC Improved,14707.995,Fair,676803.09792,32.769535,-117.0404258,32.7708064,-117.0404605
3445,SS-001555,30.67,73RD ST,EL CAJON BL,MOHAWK ST,263.0182,38.0,Collector,AC Improved,9994.6916,Poor,306537.191372,32.7687615,-117.0404096,32.769535,-117.0404258
3446,SS-001556,82.38799999999999,73RD ST,AMHERST ST,EL CAJON BL,394.033,35.0,Residential,AC Improved,13791.155,Good,1136225.67814,32.7677394,-117.040379,32.7687615,-117.0404096
3447,SS-001560,84.336,A ST,1ST AV,2ND AV,282.0019,52.0,Collector,AC Improved,14664.0988,Good,1236711.4363968,32.7188324,-117.1638747,32.7188234,-117.1629002
3448,SS-001561,71.24,A ST,2ND AV,3RD AV,277.9998,52.0,Collector,AC Improved,14455.9896,Good,1029844.6991040001,32.7188234,-117.1629002,32.718829,-117.1620098
3449,SS-001562,78.65,A ST,3RD AV,4TH AV,282.0001,52.0,Collector,AC Improved,14664.0052,Good,1153324.00898,32.718829,-117.1620098,32.7188361,-117.1610991
3450,SS-001563,82.32799999999999,A ST,4TH AV,5TH AV,285.0001,52.0,Collector,AC Improved,14820.0052,Good,1220101.3881056001,32.7188361,-117.1610991,32.7188393,-117.1601783
3451,SS-001564,72.53399999999999,A ST,5TH AV,6TH AV,274.0016,52.0,Collector,AC Improved,14248.0832,Good,1033470.4668288,32.7188393,-117.1601783,32.7188538,-117.1592903
3452,SS-001565,60.71,A ST,6TH AV,7TH AV,287.0018,52.0,Collector,AC Improved,14924.0936,Fair,906041.7224559999,32.7188538,-117.1592903,32.7188655,-117.1583658
3453,SS-001566,49.342,A ST,7TH AV,8TH AV,281.0001,52.0,Collector,AC Improved,14612.0052,Fair,720985.5605784,32.7188655,-117.1583658,32.7188659,-117.1574906
3454,SS-001567,60.422,A ST,8TH AV,9TH AV,275.0019,52.0,Collector,AC Improved,14300.0988,Fair,864040.5696936,32.7188659,-117.1574906,32.7188726,-117.1565619
3455,SS-001568,46.942,A ST,9TH AV,10TH AV,284.0015,52.0,Collector,AC Improved,14768.078000000001,Fair,693243.117476,32.7188726,-117.1565619,32.7188763,-117.155663
3456,SS-001569,49.522,A ST,10TH AV,11TH AV,278.0073,52.0,Collector,AC Improved,14456.3796,Fair,715908.8305512,32.7188763,-117.155663,32.7188659,-117.1547422
3457,SS-001570,34.961999999999996,A ST,11TH AV,PARK BL,286.0158,52.0,Collector,AC Improved,14872.8216,Poor,519983.5887792,32.7188659,-117.1547422,32.7188895,-117.1537168
3459,SS-001572,68.22,A ST,22ND ST,23RD ST,251.3474,25.0,Residential,AC Improved,6283.685,Fair,428672.9907,32.7131861,-117.1440193,32.7194114,-117.1595539
3460,SS-001574,63.926,A ST,24TH ST,25TH ST,681.0,52.0,Residential,AC Improved,35412.0,Fair,2263747.512,32.7188606,-117.1587509,32.7086298,-117.1405478
3461,SS-001575,40.69,A ST,26TH ST,27TH ST,655.0,52.0,Residential,AC Improved,34060.0,Fair,1385901.4,32.7169548,-117.1384325,32.5715154,-117.0743771
3462,SS-001576,61.916000000000004,A ST,27TH ST,28TH ST,673.0,52.0,Residential,AC Improved,34996.0,Fair,2166812.336,32.5715154,-117.0743771,32.7265781,-117.1345114
3463,SS-001577,87.92399999999999,A ST,GRANADA AV,29TH ST,289.0,52.0,Residential,AC Improved,15028.0,Good,1321321.872,32.7194114,-117.1595539,32.7187603,-117.1296461
3464,SS-001578,72.27199999999999,A ST,29TH ST,29TH ST,88.0,52.0,Residential,AC Improved,4576.0,Good,330716.672,32.7187603,-117.1296461,32.7187603,-117.1296461
3465,SS-001579,80.774,A ST,29TH ST,30TH ST,712.0,52.0,Collector,AC Improved,37024.0,Good,2990576.5760000004,32.7187603,-117.1296461,32.7188253,-117.1293964
3466,SS-001580,81.546,A ST,30TH ST,GROVE ST,319.0,52.0,Residential,AC Improved,16588.0,Good,1352685.0480000002,32.7188253,-117.1293964,32.7188606,-117.1587509
3467,SS-001581,52.356,A ST,GROVE ST,31ST ST,285.0,52.0,Residential,AC Improved,14820.0,Fair,775915.92,32.7188606,-117.1587509,32.7472564,-117.1275094
3468,SS-001582,88.0,A ST,33RD ST,33RD ST,111.0722,40.0,Collector,AC Improved,4442.888,Good,390974.144,32.718074,-117.1237004,32.718074,-117.1237004
3469,SS-001583,90.0,A ST,33RD ST,FELTON ST,164.0762,40.0,Residential,AC Improved,6563.048000000001,Good,590674.32,32.718074,-117.1237004,32.7651222,-117.1221321
3470,SS-001584,88.6,A ST,FELTON ST,34TH ST,488.3978,40.0,Collector,AC Improved,19535.912,Good,1730881.8032,32.7651222,-117.1221321,32.7625202,-117.1210067
3471,SS-001585,72.206,A ST,47TH ST,49TH ST,949.1728,37.0,Collector,AC Improved,35119.3936,Good,2535830.9342816,32.7085459,-117.0943884,32.7628392,-117.0891005
3473,SS-001587,68.908,A ST,46TH ST,COTTON ST,336.9546,28.0,Residential,AC Improved,9434.7288,Fair,650128.2921504001,32.7498421,-117.0953851,32.7194114,-117.1595539
3474,SS-001589,60.961999999999996,A ST,25TH ST,26TH ST,645.0,52.0,Residential,AC Improved,33540.0,Fair,2044665.48,32.7086298,-117.1405478,32.7169548,-117.1384325
3475,SS-001590,87.134,A ST,28TH ST,GRANADA AV,270.0,52.0,Residential,AC Improved,14040.0,Good,1223361.36,32.7265781,-117.1345114,32.7194114,-117.1595539
3476,SS-001591,49.46,A ST,31ST ST,EDGEMONT ST,278.0,52.0,Residential,AC Improved,14456.0,Fair,714993.76,32.7472564,-117.1275094,32.7188253,-117.1293964
3479,SS-001594,59.333999999999996,A ST,49TH ST,MARY LOU ST,584.4662,36.0,Residential,AC Improved,21040.7832,Fair,1248433.8303888,32.7628392,-117.0891005,32.719085,-117.160833
3481,SS-001596,89.936,ABALONE LANDING TR,SENDA ACUARIO,SAND CRAB PL,472.0,36.0,Residential,AC Improved,16992.0,Good,1528192.5119999999,32.9108507,-117.22203,32.9116765,-117.2208495
3482,SS-001597,74.764,ABALONE PL,BIRD ROCK AV,CHELSEA AV,462.5736,30.0,Residential,AC Improved,13877.208,Good,1037515.578912,32.8151992,-117.2725302,32.816174,-117.272102
3483,SS-001600,76.848,ABALONE PL,CHELSEA AV,BIRD ROCK AV,554.8365,30.0,Residential,AC Improved,16645.095,Good,1279142.26056,32.816174,-117.272102,32.8151992,-117.2725302
3484,SS-001601,35.38,ABBE ST,BURROUGHS ST,TAIT ST,879.1582,32.0,Residential,AC Improved,28133.0624,Poor,995347.747712,32.7796602,-117.1665407,32.7812975,-117.1680582
3485,SS-001602,60.912,ABBOTSHILL RD,THAMES CT,SALISBURY DR,445.296,36.0,Residential,AC Improved,16030.656,Fair,976459.318272,32.7858171,-117.1493597,32.7863552,-117.1480904
3486,SS-001603,70.128,ABBOTSHILL RD,PHYLLIS PL,THAMES CT,538.1378,36.0,Residential,AC Improved,19372.9608,Good,1358586.9949824,32.7845103,-117.150056,32.7858171,-117.1493597
3487,SS-001604,70.37,ABBOTSHILL RD,AINSLEY RD,PHYLLIS PL,265.4451,40.0,Residential,PCC Jointed Concrete,10617.803999999998,Good,747174.86748,32.7839528,-117.1505812,32.7845103,-117.150056
3488,SS-001606,70.852,ABBOTT ST,LOTUS ST,WEST POINT LOMA BL,220.4657,40.0,Major,AC Improved,8818.628,Good,624817.4310560001,32.753725,-117.247814,32.7541946,-117.2473809
3489,SS-001607,83.564,ABBOTT ST,LOTUS ST,LOTUS ST,57.8013,40.0,Major,AC Improved,2312.052,Good,193204.313328,32.753725,-117.247814,32.753725,-117.247814
3490,SS-001608,68.618,ABBOTT ST,LONG BRANCH AV,MUIR AV,263.0018,40.0,Major,AC Improved,10520.072,Fair,721866.300496,32.7518902,-117.249394,32.7524813,-117.2488904
3491,SS-001609,80.84,ABBOTT ST,VOLTAIRE ST,LOTUS ST,228.0031,40.0,Major,AC Improved,9120.124,Good,737270.8241600001,32.753104,-117.2483515,32.753725,-117.247814
3492,SS-001610,70.82600000000001,ABBOTT ST,MUIR AV,VOLTAIRE ST,272.4066,40.0,Major,AC Improved,10896.264,Good,771738.794064,32.7524813,-117.2488904,32.753104,-117.2483515
3493,SS-001611,83.64,ABBOTT ST,BRIGHTON AV,LONG BRANCH AV,270.8007,40.0,Major,AC Improved,10832.028,Good,905990.8219200001,32.7512942,-117.2499055,32.7518902,-117.249394
3494,SS-001612,76.774,ABBOTT ST,CAPE MAY AV,BRIGHTON AV,376.0055,40.0,Major,AC Improved,15040.22,Good,1154697.85028,32.7504842,-117.2506298,32.7512942,-117.2499055
3495,SS-001613,87.964,ABBOTT ST,SARATOGA AV,CAPE MAY AV,380.2032,40.0,Major,AC Improved,15208.128,Good,1337767.771392,32.7496359,-117.251356,32.7504842,-117.2506298
3496,SS-001614,80.67399999999999,ABBOTT ST,SANTA MONICA AV,SARATOGA AV,376.0053,40.0,Major,AC Improved,15040.212,Good,1213354.062888,32.748787,-117.2520815,32.7496359,-117.251356
3497,SS-001615,83.09200000000001,ABBOTT ST,NEWPORT AV,SANTA MONICA AV,426.6309,40.0,Major,AC Improved,17065.236,Good,1417984.589712,32.747835,-117.2526304,32.748787,-117.2520815
3498,SS-001616,92.64,ABER ST,LISANN ST,ARIANE DR,1152.9451,36.0,Residential,AC Improved,41506.0236,Good,3845118.026304,32.82877,-117.225388,32.828964,-117.221809
3499,SS-001617,70.624,ABER ST,ARIANE DR,JUTLAND DR,377.6815,36.0,Prime,AC Improved,13596.534,Good,960241.617216,32.828964,-117.221809,32.828346,-117.220833
3500,SS-001618,66.882,ABERDEEN ST,BAXTER ST,DIANE AV,875.0968,30.0,Residential,AC Improved,26252.904,Fair,1755846.7253279998,32.8378066,-117.1898847,32.83778,-117.18705
3501,SS-001619,83.586,ABERDEEN ST,DIANE AV,ARTESIAN ST,501.0,30.0,Residential,AC Improved,15030.0,Good,1256297.58,32.83778,-117.18705,32.83778,-117.18705
3503,SS-001621,42.006,ABERDEEN ST,LIMERICK AV,ROSCREA AV,742.8142,30.0,Residential,AC Improved,22284.426,Fair,936079.5985559999,32.8373572,-117.1784488,32.8373486,-117.1760075
3505,SS-001623,43.4,ABING AV,ENTREKEN AV,SUNDANCE AV,725.7978,28.0,Residential,AC Improved,20322.3384,Fair,881989.48656,32.954708,-117.144119,32.9566587,-117.1442276
3506,SS-001624,75.16,ABRA DR,ROBLE WY,ABRA PL,420.1677,36.0,Residential,AC Improved,15126.0372,Good,1136872.955952,33.0216459,-117.054844,33.0222239,-117.0537613
3507,SS-001625,68.49600000000001,ABRA DR,ABRA WY,ROBLE WY,256.4118,36.0,Residential,AC Improved,9230.8248,Fair,632274.5755008,33.0209941,-117.0551782,33.0216459,-117.054844
3508,SS-001626,71.778,ABRA DR,ALONDRA DR,ABRA WY,567.8145,36.0,Residential,AC Improved,20441.322,Good,1467237.210516,33.0202215,-117.0567198,33.0209941,-117.0551782
3509,SS-001627,63.2,ABRA DR,CRESTA DR,ALONDRA DR,227.63400000000001,36.0,Residential,AC Improved,8194.824,Fair,517912.8768,33.0203105,-117.0574273,33.0202215,-117.0567198
3510,SS-001628,70.992,ABRA DR,ABRA PL,MONTERO RD,1233.3744,36.0,Residential,AC Improved,44401.4784,Good,3152149.7545728,33.0222239,-117.0537613,33.0251364,-117.0522819
3513,SS-001631,54.618,ABUELA DR,CARIUTO CT,ESMERALDAS DR,696.2595,36.0,Residential,AC Improved,25065.342,Fair,1369018.8493559998,32.8242494,-117.09695,32.8261182,-117.0970334
3514,SS-001632,65.962,ABUELA DR,ESCOBAR DR,CARIUTO CT,611.5031,40.0,Residential,AC Improved,24460.124,Fair,1613438.699288,32.822683,-117.0978051,32.8242494,-117.09695
3516,SS-001634,91.33,ACACIA ST,BOSTON AV,RIGEL ST,277.8922,33.0,Residential,AC Improved,9170.4426,Good,837536.522658,32.6939052,-117.1195863,32.6934118,-117.1189
3517,SS-001635,85.694,ACACIA ST,RIGEL ST,Z ST,327.5521,36.0,Residential,AC Improved,11791.8756,Good,1010492.9876663999,32.6934118,-117.1189,32.6928636,-117.1180704
3518,SS-001636,72.24,ACACIA ST,Z ST,ACACIA CT,175.7962,36.0,Residential,AC Improved,6328.6632,Good,457182.62956800003,32.6928636,-117.1180704,32.6925502,-117.1176302
3519,SS-001637,61.47,ACACIA ST,S 37TH ST,UNA ST,247.0621,40.0,Residential,AC Improved,9882.484,Fair,607476.29148,32.6903668,-117.1144777,32.6899226,-117.1138448
3520,SS-001638,81.014,ACACIA ST,UNA ST,S 38TH ST,399.4962,52.0,Residential,AC Improved,20773.8024,Good,1682968.8276336,32.6899226,-117.1138448,32.6892433,-117.1128795
3521,SS-001639,93.67,ACACIA ST,S 38TH ST,DELTA ST,298.9132,52.0,Prime,AC Improved,15543.4864,Good,1455958.371088,32.6892433,-117.1128795,32.688717,-117.112106
3522,SS-001640,73.832,ACACIA ST,DELTA ST,EPSILON ST,623.327,52.0,Residential,AC Improved,32413.004,Good,2393116.911328,32.688717,-117.112106,32.6876808,-117.1104913
3525,SS-001643,56.676,ACADEMY ST,LAW ST,BERYL ST,552.4941,36.0,Residential,PCC Jointed Concrete,19889.7876,Fair,1127273.6020176,32.8072026,-117.2343531,32.8082755,-117.2338996
3526,SS-001644,59.73,ACADEMY ST,ACADEMY PL,LAW ST,394.3942,36.0,Residential,PCC Jointed Concrete,14198.1912,Fair,848057.960376,32.8062062,-117.234253,32.8072026,-117.2343531
3527,SS-001645,98.0,ACAMA CT,CALLE CRISTOBAL,PRAIRIE SHADOW RD,186.5502,36.0,Local,AC Improved,6715.8072,Good,658149.1056,32.9271688,-117.1552686,32.9277247,-117.1553619
3528,SS-001646,30.25,ACAMA CT,ACAMA ST,CALLE CRISTOBAL,215.0022,36.0,Collector,AC Improved,7740.0792,Poor,234137.3958,32.9266479,-117.1552406,32.9271688,-117.1552686
3529,SS-001647,75.12,ACAMA PL,TUPELO CV,ACAMA ST,238.1387,30.0,Local,AC Improved,7144.161,Good,536669.37432,32.9259593,-117.1596294,32.9266134,-117.1595881
3532,SS-001650,89.508,ACAMA ST,ACAMA PL,ANDASOL ST,412.9998,40.0,Local,AC Improved,16519.992,Good,1478671.443936,32.9266134,-117.1595881,32.9266198,-117.1582258
3533,SS-001651,94.944,ACAMA ST,ANDASOL ST,ACAMA CT,909.0007,40.0,Collector,AC Improved,36360.028,Good,3452166.498432,32.9266198,-117.1582258,32.9266479,-117.1552406
3534,SS-001652,86.008,ACAMA ST,ACAMA CT,MONTONGO ST,356.1743,40.0,Collector,AC Improved,14246.972,Good,1225353.5677760001,32.9266479,-117.1552406,32.9264666,-117.1541167
3536,SS-001654,87.12799999999999,ACAMA ST,MONTONGO ST,ADRIATIC PL,382.6744,40.0,Local,AC Improved,15306.976,Good,1333666.204928,32.9264666,-117.1541167,32.9264445,-117.1529004
3538,SS-001656,54.868,ACASO CT,ANDASOL ST,ACASO WY,322.5816,36.0,Residential,AC Improved,11612.9376,Fair,637178.6602368,32.9259326,-117.158198,32.9258601,-117.1572083
3539,SS-001657,41.646,ACASO WY,ANGELENO RD,ACASO CT,761.0024,36.0,Residential,AC Improved,27396.0864,Fair,1140937.4142143999,32.9237286,-117.1571852,32.9258601,-117.1572083
3540,SS-001658,56.001999999999995,ACCOMAC AV,MT ACARA DR,MT ABBEY AV,894.0238,36.0,Residential,AC Improved,32184.8568,Fair,1802416.3505136,32.805725,-117.1796249,32.807755,-117.180847
3542,SS-001660,82.694,ACCRA LN,TONDINO RD,WEATHERWOOD TR,620.053,32.0,Residential,AC Improved,19841.696,Good,1640789.209024,32.9204362,-117.0780138,32.9214889,-117.0779711
3543,SS-001661,35.67,ACE ST,STREAMVIEW DR,DWIGHT ST,321.0,36.0,Collector,AC Improved,11556.0,Poor,412202.52,32.7430424,-117.0788445,32.7439949,-117.0787885
3544,SS-001662,62.294,ACEBO DR,ACEBO PL,BELLOTA DR,213.5374,36.0,Residential,AC Improved,7687.3464,Fair,478875.5566415999,33.0188199,-117.0680519,33.019091,-117.0686511
3545,SS-001663,75.49600000000001,ACEBO DR,OBISPO RD,ACEBO PL,499.0115,36.0,Residential,AC Improved,17964.414,Good,1356241.399344,33.0174841,-117.0678093,33.0188199,-117.0680519
3546,SS-001664,56.89,ACEBO DR,PASTORAL RD,OBISPO RD,281.2884,36.0,Residential,AC Improved,10126.3824,Fair,576089.894736,33.0167409,-117.0675793,33.0174841,-117.0678093
3547,SS-001665,63.472,ACEBO DR,SAN SALVADOR RD,PASTORAL RD,248.0808,36.0,Residential,AC Improved,8930.9088,Fair,566862.6433535999,33.0160816,-117.0673366,33.0167409,-117.0675793
3549,SS-001667,76.84,ACEITUNO ST,CAM RAMILLETTE,BERNARDO TRAILS DR,2516.0025,36.0,Residential,PCC Jointed Concrete,90576.09,Good,6959866.7556,33.0397034,-117.0462848,33.0456776,-117.0484323
3550,SS-001668,87.124,ACEITUNO ST,CTE DE CHUCENA,CAM RAMILLETTE,277.622,36.0,Residential,AC Improved,9994.392,Good,870751.408608,33.0409028,-117.0465492,33.0397034,-117.0462848
3551,SS-001669,85.19,ACEITUNO ST,CTE DE COMARES,CTE DE CHUCENA,301.2941,36.0,Residential,AC Improved,10846.5876,Good,924020.797644,33.0409028,-117.0465492,33.0409028,-117.0465492
3552,SS-001670,81.97200000000001,ACEITUNO ST,CTE DE CANDILEJAS,CTE DE COMARES,636.6376,36.0,Residential,AC Improved,22918.9536,Good,1878712.4644992,33.0409028,-117.0465492,33.0409028,-117.0465492
3553,SS-001671,75.818,ACEITUNO ST,AVNDA MARBELLA,CTE DE CANDILEJAS,234.1039,36.0,Residential,AC Improved,8427.7404,Good,638974.4216471999,33.0362874,-117.0462852,33.0409028,-117.0465492
3554,SS-001672,55.45399999999999,ACENA DR,HIERBA DR,RANCHO BERNARDO RD,891.6085,40.0,Major,AC Improved,35664.34,Fair,1977730.3103599998,33.0202847,-117.0708919,33.022568,-117.0701421
3555,SS-001673,65.242,ACENA DR,CALLADO RD,OBISPO RD,621.4149,40.0,Major,AC Improved,24856.596,Fair,1621694.036232,33.01684160000001,-117.0734741,33.0181245,-117.072245
3556,SS-001674,38.732,ACENA DR,LOMICA DR,CALLADO RD,280.7134,40.0,Major,AC Improved,11228.536,Poor,434903.656352,33.0161302,-117.0738161,33.01684160000001,-117.0734741
3557,SS-001675,53.396,ACENA DR,OBISPO RD,HIERBA DR,1014.9044,40.0,Major,AC Improved,40596.176,Fair,2167673.413696,33.0181245,-117.072245,33.0202847,-117.0708919
3558,SS-001676,38.611999999999995,ACHESON ST,CAM MANGANA,BURTON ST,1169.0496,32.0,Residential,AC Improved,37409.5872,Poor,1444458.9809664,32.772749,-117.1734551,32.7741635,-117.1728224
3559,SS-001677,50.402,ACOMA AV,SHOSHONI AV,BOISE AV,586.0005,30.0,Residential,AC Improved,17580.015,Fair,886067.91603,32.831184,-117.194168,32.8311174,-117.19239
3560,SS-001678,50.848,ACORN ST,CATHERINE AV,VIRGINIA AV,251.0081,30.0,Residential,AC Improved,7530.243,Fair,382897.796064,32.7604625,-117.0600889,32.7604811,-117.059269
3561,SS-001679,77.408,ACORN ST,SEMINOLE DR,CATHERINE AV,339.0059,30.0,Residential,AC Improved,10170.177,Good,787253.061216,32.7606247,-117.0611821,32.7604625,-117.0600889
3562,SS-001680,38.38,ACORN ST,62ND ST,62ND ST,139.9712,36.0,Collector,AC Improved,5038.9632,Poor,193395.407616,32.7604302,-117.0645058,32.7604302,-117.0645058
3564,SS-001682,34.7,ACORN ST,COLLEGE AV,62ND ST,667.2093,40.0,Collector,AC Improved,26688.372000000003,Poor,926086.5084,32.7596101,-117.066338,32.7604302,-117.0645058
3565,SS-001683,14.3,ACORN ST,63RD ST,SEMINOLE DR,293.0437,36.0,Residential,AC Improved,10549.5732,Poor,150858.89676,32.760599,-117.062162,32.7606247,-117.0611821
3566,SS-001684,45.76,ACORN ST,62ND ST,63RD ST,591.0212,36.0,Residential,AC Improved,21276.7632,Fair,973624.684032,32.7604302,-117.0645058,32.760599,-117.062162
3568,SS-001686,36.47,ACRUX DR,AQUARIUS DR,SPICA DR,1224.1199,36.0,Residential,AC Improved,44068.3164,Poor,1607171.499108,32.930214,-117.139809,32.933029,-117.138878
3569,SS-001687,67.77,ACTIVITY RD,PADGETT ST,BLACK MTN RD,1096.2628,50.0,Collector,AC Improved,54813.14,Fair,3714686.4978,32.89707130000001,-117.1269338,32.8970266,-117.1233735
3570,SS-001688,91.96799999999999,ACTIVITY RD,CLAYTON DR,PADGETT ST,1298.8954,44.0,Collector,AC Improved,57151.3976,Good,5256099.7344768,32.8964603,-117.1310476,32.89707130000001,-117.1269338
3571,SS-001689,90.8,ACTIVITY RD,CAM RUIZ,CLAYTON DR,1284.5444,44.0,Collector,AC Improved,56519.9536,Good,5132011.7868800005,32.8957396,-117.1350022,32.8964603,-117.1310476
3572,SS-001690,34.064,ACUFF DR,BARKER WY,COWLES MTN BL,323.3578,36.0,Residential,AC Improved,11640.8808,Poor,396534.9635712,32.8153018,-117.0160992,32.8150802,-117.015159
3573,SS-001691,72.9,ACUFF DR,COWLES MTN BL,BALLINGER AV,276.9856,36.0,Residential,AC Improved,9971.4816,Good,726921.00864,32.8150802,-117.015159,32.8147069,-117.0143884
3574,SS-001692,84.14399999999999,ACUFF DR,BALLINGER AV,TURNFORD DR,250.7987,36.0,Residential,AC Improved,9028.7532,Good,759715.4092608001,32.8147069,-117.0143884,32.8143697,-117.0136625
3575,SS-001693,61.98,ACUNA ST,LIMERICK AV,SAGASTI AV,388.1558,36.0,Residential,AC Improved,13973.6088,Fair,866084.273424,32.8328499,-117.1787642,32.8328156,-117.1773762
3576,SS-001694,71.97800000000001,ACUNA ST,RUSHDEN AV,LIMERICK AV,739.1515,40.0,Residential,AC Improved,29566.06,Good,2128105.86668,32.8320864,-117.18091,32.8328499,-117.1787642
3577,SS-001695,77.748,ACUNA ST,BOXWOOD DR,LONGFORD ST,827.318,40.0,Residential,AC Improved,33092.72,Good,2572892.79456,32.8307347,-117.1850971,32.8312434,-117.1825103
3578,SS-001696,64.888,ACUNA ST,LONGFORD ST,RUSHDEN AV,589.1027,40.0,Residential,AC Improved,23564.107999999997,Fair,1529027.839904,32.8312434,-117.1825103,32.8320864,-117.18091
3579,SS-001697,51.056000000000004,ACWORTH AV,MT ACADIA BL,MT ALADIN AV,197.8005,40.0,Residential,AC Improved,7912.02,Fair,403956.09312,32.807121,-117.182411,32.8075144,-117.1829732
3580,SS-001698,83.024,ACWORTH AV,MT ABBEY AV,MT ACADIA BL,251.8114,36.0,Prime,AC Improved,9065.2104,Good,752630.0282496,32.806705,-117.181763,32.807121,-117.182411
3581,SS-001699,85.83,ACWORTH AV,MT CAROL DR,MT ABBEY AV,374.2369,36.0,Prime,AC Improved,13472.5284,Good,1156347.112572,32.805828,-117.181198,32.806705,-117.181763
3582,SS-001700,50.18,ACWORTH AV,BOYD AV,OLD MEADOW RD,501.00699999999995,40.0,Prime,AC Improved,20040.28,Fair,1005621.2504,32.804485,-117.177383,32.804012,-117.178909
3583,SS-001701,58.352,ACWORTH AV,OLD MEADOW RD,MT CAROL DR,1168.7947,40.0,Prime,AC Improved,46751.788,Fair,2728060.3333759997,32.804012,-117.178909,32.805828,-117.181198
3584,SS-001702,36.49,ADA ST,IMPERIAL AV,FRANKLIN AV,938.0046,40.0,Residential,AC Improved,37520.184,Poor,1369111.51416,32.7048406,-117.1092315,32.7022605,-117.109231
3585,SS-001704,67.938,ADAIR ST,EBERS ST,DEVONSHIRE DR,245.204,36.0,Residential,AC Improved,8827.344000000001,Fair,599712.096672,32.7345769,-117.2537295,32.7349663,-117.2543636
3586,SS-001705,71.2,ADAIR ST,FROUDE ST,EBERS ST,660.6134,36.0,Residential,AC Improved,23782.0824,Good,1693284.26688,32.7335041,-117.2519736,32.7345769,-117.2537295
3587,SS-001706,70.018,ADAIR ST,GUIZOT ST,FROUDE ST,658.4108,36.0,Residential,AC Improved,23702.7888,Good,1659621.8661984,32.7324381,-117.2502541,32.7335041,-117.2519736
3588,SS-001707,69.828,ADAIR ST,SANTA BARBARA ST,GUIZOT ST,745.2639999999999,40.0,Residential,AC Improved,29810.56,Fair,2081611.7836799999,32.7317235,-117.2481569,32.7324381,-117.2502541
3589,SS-001708,58.482,ADAIR ST,DEVONSHIRE DR,SUNSET CLIFFS BL,408.207,36.0,Residential,AC Improved,14695.452,Fair,859419.4238639999,32.7349663,-117.2543636,32.7356269,-117.2554462
3590,SS-001709,89.31200000000001,ADAMS AV,IOWA ST,32ND ST,325.0385,56.0,Collector,AC Improved,18202.156000000003,Good,1625670.956672,32.7633919,-117.1260419,32.7633881,-117.1249855
3591,SS-001710,82.60799999999999,ADAMS AV,32ND ST,BANCROFT ST,324.0556,56.0,Collector,AC Improved,18147.1136,Good,1499096.7602688,32.7633881,-117.1249855,32.76338,-117.1239257
3592,SS-001711,79.68,ADAMS AV,WEST MTN VIEW DR,IOWA ST,170.8447,56.0,Collector,AC Improved,9567.3032,Good,762322.718976,32.7633693,-117.1266167,32.7633919,-117.1260419
3593,SS-001712,85.78200000000001,ADAMS AV,BANCROFT ST,33RD ST,327.0382,56.0,Collector,AC Improved,18314.1392,Good,1571023.4888543999,32.76338,-117.1239257,32.7633761,-117.122871
3594,SS-001713,76.33,ADAMS AV,33RD ST,FELTON ST,342.0526,56.0,Collector,AC Improved,19154.9456,Good,1462096.997648,32.7633761,-117.122871,32.7633693,-117.1217591
3595,SS-001714,79.352,ADAMS AV,FELTON ST,34TH ST,341.0366,56.0,Collector,AC Improved,19098.0496,Good,1515468.4318592,32.7633693,-117.1217591,32.7633604,-117.1206457
3596,SS-001715,85.508,ADAMS AV,34TH ST,HAWLEY BL,360.0499,56.0,Collector,AC Improved,20162.7944,Good,1724080.2235551998,32.7633604,-117.1206457,32.7633601,-117.119484
3597,SS-001716,83.304,ADAMS AV,HAWLEY BL,MANSFIELD ST,346.05199999999996,56.0,Collector,AC Improved,19378.912,Good,1614340.885248,32.7633601,-117.119484,32.7633483,-117.1183543
3598,SS-001717,86.34,ADAMS AV,MANSFIELD ST,35TH ST,324.0556,56.0,Collector,AC Improved,18147.1136,Good,1566821.788224,32.7633483,-117.1183543,32.7633464,-117.117293
3599,SS-001718,77.354,ADAMS AV,35TH ST,WILSON AV,328.0381,56.0,Collector,AC Improved,18370.1336,Good,1421003.3144943998,32.7633464,-117.117293,32.7633327,-117.1162326
3600,SS-001719,85.382,ADAMS AV,WILSON AV,36TH ST,328.0381,56.0,Collector,AC Improved,18370.1336,Good,1568478.7470352,32.7633327,-117.1162326,32.7633331,-117.1151739
3601,SS-001720,87.23200000000001,ADAMS AV,36TH ST,CHEROKEE AV,323.0557,56.0,Collector,AC Improved,18091.1192,Good,1578124.5100544,32.7633331,-117.1151739,32.7633237,-117.1141147
3602,SS-001721,88.67200000000001,ADAMS AV,CHEROKEE AV,EAST MTN VIEW DR,589.085,56.0,Collector,AC Improved,32988.76,Good,2925179.3267200002,32.7633237,-117.1141147,32.7633018,-117.112181
3603,SS-001722,84.98200000000001,ADAMS AV,EAST MTN VIEW DR,39TH ST,354.3399,56.0,Collector,AC Improved,19843.0344,Good,1686300.7493808,32.7633018,-117.112181,32.7632888,-117.1109734
3604,SS-001724,82.1,ADAMS AV,39TH ST,BONNIE CT,304.7528,56.0,Collector,AC Improved,17066.1568,Good,1401131.47328,32.7632888,-117.1109734,32.7632786,-117.1100507
3605,SS-001726,89.33200000000001,ADAMS AV,KENSINGTON DR,MARLBOROUGH DR,318.0771,49.0,Collector,AC Improved,15585.7779,Good,1392308.7113628,32.7632554,-117.1073475,32.7632555,-117.1063272
3606,SS-001727,86.3,ADAMS AV,MARLBOROUGH DR,EDGEWARE RD,315.0775,49.0,Collector,AC Improved,15438.7975,Good,1332368.22425,32.7632555,-117.1063272,32.7632374,-117.1053027
3607,SS-001728,55.854,ADAMS AV,EDGEWARE RD,42ND ST,164.0274,49.0,Collector,AC Improved,8037.3426,Fair,448917.7335804,32.7632374,-117.1053027,32.7632321,-117.1047591
3608,SS-001729,58.138000000000005,ADAMS AV,42ND ST,BIONA DR,152.0296,49.0,Collector,AC Improved,7449.4504,Fair,433096.1473552,32.7632321,-117.1047591,32.7632255,-117.1042615
3609,SS-001730,76.93,ADAMS AV,BIONA DR,VISTA ST,301.0,49.0,Collector,AC Improved,14749.0,Good,1134640.57,32.7632255,-117.1042615,32.7632176,-117.103291
3610,SS-001731,78.762,ADAMS AV,VISTA ST,VAN DYKE AV,283.0,49.0,Collector,AC Improved,13867.0,Good,1092192.654,32.7632176,-117.103291,32.7632177,-117.1023619
3611,SS-001732,60.62,ADAMS AV,VAN DYKE AV,NORTH TALMADGE DR,270.0464,49.0,Residential,AC Improved,13232.2736,Fair,802140.425632,32.7632177,-117.1023619,32.7632018,-117.1014839
3612,SS-001733,80.57,ADAMS AV,NORTH TALMADGE DR,EAST TALMADGE DR,862.8941,30.0,Residential,AC Improved,25886.822999999997,Good,2085701.3291099998,32.7632018,-117.1014839,32.7633233,-117.0986854
3613,SS-001734,78.672,ADAMS AV,LOUISIANA ST,TEXAS ST,346.0,20.0,Collector,AC Improved,6920.0,Good,544410.24,32.7628529,-117.1400801,32.763078,-117.13623
3614,SS-001735,86.464,ADAMS AV,TEXAS ST,ARIZONA ST,411.0,52.0,Collector,AC Improved,21372.0,Good,1847908.608,32.763078,-117.13623,32.7628659,-117.1371036
3615,SS-001736,84.736,ADAMS AV,ARIZONA ST,ARIZONA ST,159.0,52.0,Collector,AC Improved,8268.0,Good,700597.248,32.7628659,-117.1371036,32.7628659,-117.1371036
3617,SS-001738,85.038,ADAMS AV,ALTADENA AV,51ST ST,248.0183,36.0,Residential,AC Improved,8928.6588,Good,759275.2870344,32.7628931,-117.0856981,32.7628816,-117.0849113
3619,SS-001741,73.252,ADAMS AV,54TH ST,HINSON PL,141.0036,30.0,Residential,PCC Jointed Concrete,4230.108,Good,309863.871216,32.7626728,-117.0793928,32.7626697,-117.0789407
3620,SS-001742,82.62799999999999,ADAMS AV,HINSON PL,55TH ST,873.1121,30.0,Residential,PCC Jointed Concrete,26193.362999999998,Good,2164305.197964,32.7626697,-117.0789407,32.762648,-117.0760936
3621,SS-001744,81.6,ADAMS AV,EL CERRITO DR,EL CERRITO PL,150.7506,30.0,Residential,PCC Jointed Concrete,4522.518,Good,369037.4688,32.7626358,-117.0736263,32.7626495,-117.0731395
3622,SS-001745,89.0,ADAMS AV,ALICE ST,59TH ST,303.0001,18.0,Residential,AC Improved,5454.0018,Good,485406.1602,32.7625328,-117.0717604,32.7626432,-117.0707796
3623,SS-001746,86.74,ADAMS AV,59TH ST,ESTHER ST,305.1049,18.0,Residential,PCC Jointed Concrete,5491.8882,Good,476366.38246800005,32.7626432,-117.0707796,32.76261420000001,-117.0697498
3624,SS-001747,35.56,ADAMS AV,ESTHER ST,60TH ST,292.0429,30.0,Residential,AC Improved,8761.287,Poor,311551.36572,32.76261420000001,-117.0697498,32.7626005,-117.0687964
3625,SS-001748,36.56,ADAMS AV,60TH ST,SORIA DR,305.1983,30.0,Residential,AC Improved,9155.949,Poor,334741.49544,32.7626005,-117.0687964,32.7625867,-117.0677899
3626,SS-001749,65.67,ADAMS AV,SORIA DR,COLLEGE AV,286.0435,30.0,Residential,AC Improved,8581.305,Fair,563534.29935,32.7625867,-117.0677899,32.7625885,-117.0668117
3628,SS-001751,92.876,ADAMS AV,ESTRELLA AV,49TH ST,317.1014,54.0,Collector,AC Improved,17123.4756,Good,1590359.9198256,32.7622919,-117.0898153,32.7628392,-117.0891005
3629,SS-001752,72.57600000000001,ADAMS AV,ALMA PL,54TH ST,303.1638,36.0,Residential,AC Improved,10913.8968,Good,792086.9741568001,32.7622625,-117.0802235,32.7626728,-117.0793928
3630,SS-001753,98.8,ADAMS AV,48TH ST,ESTRELLA AV,296.4853,54.0,Residential,AC Improved,16010.2062,Good,1581808.37256,32.7621192,-117.0907842,32.7622919,-117.0898153
3631,SS-001754,86.46799999999999,ADAMS AV,NATALIE DR,47TH ST,355.6598,30.0,Residential,AC Improved,10669.794,Good,922595.747592,32.7620852,-117.0935232,32.7619457,-117.0923973
3632,SS-001755,83.024,ADAMS AV,47TH ST,MIRACLE DR,271.0,30.0,Residential,AC Improved,8130.0,Good,674985.12,32.7619457,-117.0923973,32.7619487,-117.0915326
3633,SS-001756,80.584,ADAMS AV,ADELPHI PL,ANTIOCH PL,534.8913,36.0,Residential,AC Improved,19256.0868,Good,1551732.4986911998,32.7628922,-117.082171,32.7618911,-117.081409
3634,SS-001757,98.096,ADAMS AV,EUCLID AV,48TH ST,204.1435,54.0,Collector,AC Improved,11023.749,Good,1081385.681904,32.7617135,-117.0914608,32.7621192,-117.0907842
3635,SS-001758,77.62,ADAMS AV,MIRACLE DR,EUCLID AV,71.0637,54.0,Collector,AC Improved,3837.4398,Good,297862.077276,32.7619487,-117.0915326,32.7617135,-117.0914608
3636,SS-001759,73.312,ADAMS AV,BOUNDARY ST,WEST MTN VIEW DR,537.0,60.0,Collector,PCC Jointed Concrete,32220.0,Good,2362112.64,32.7629249,-117.1282776,32.7633693,-117.1266167
3637,SS-001760,70.324,ADAMS AV,BONNIE CT,KENSINGTON DR,829.1147,28.0,Collector,AC Improved,23215.2116,Good,1632586.5405583999,32.7632786,-117.1100507,32.7632554,-117.1073475
3638,SS-001761,86.292,ADAMS AV,ALABAMA ST,MISSISSIPPI ST,391.0,52.0,Collector,AC Improved,20332.0,Good,1754488.9440000001,32.7627312,-117.1425612,32.762848,-117.1413279
3639,SS-001762,84.08,ADAMS AV,MISSISSIPPI ST,LOUISIANA ST,387.0,52.0,Collector,AC Improved,20124.0,Good,1692025.92,32.762848,-117.1413279,32.7628529,-117.1400801
3640,SS-001763,71.532,ADAMS AV,ARIZONA ST,HAMILTON ST,221.0,52.0,Collector,AC Improved,11492.0,Good,822045.7440000001,32.7628659,-117.1371036,32.7628673,-117.136388
3641,SS-001764,81.86399999999999,ADAMS AV,HAMILTON ST,OREGON ST,380.0,52.0,Collector,AC Improved,19760.0,Good,1617632.64,32.7628673,-117.136388,32.7628699,-117.1351501
3642,SS-001765,78.32,ADAMS AV,OREGON ST,IDAHO ST,377.0052,52.0,Collector,AC Improved,19604.2704,Good,1535406.4577280001,32.7628699,-117.1351501,32.7628811,-117.1339246
3643,SS-001766,73.85600000000001,ADAMS AV,IDAHO ST,UTAH ST,384.0051,52.0,Collector,AC Improved,19968.2652,Good,1474776.1946112,32.7628811,-117.1339246,32.7628788,-117.1326802
3644,SS-001767,68.584,ADAMS AV,UTAH ST,KANSAS ST,383.0025,52.0,Collector,AC Improved,19916.13,Fair,1365927.8599200002,32.7628788,-117.1326802,32.7628894,-117.1314393
3645,SS-001768,68.22399999999999,ADAMS AV,KANSAS ST,30TH ST,378.0029,52.0,Collector,AC Improved,19656.1508,Fair,1341021.2321792,32.7628894,-117.1314393,32.7629004,-117.1302137
3646,SS-001769,75.77199999999999,ADAMS AV,30TH ST,OHIO ST,380.0025,52.0,Collector,AC Improved,19760.13,Good,1497264.57036,32.7629004,-117.1302137,32.7629005,-117.1289702
3647,SS-001770,78.808,ADAMS AV,OHIO ST,BOUNDARY ST,217.551,52.0,Collector,AC Improved,11312.652,Good,891527.4788159999,32.7629005,-117.1289702,32.7629249,-117.1282776
3648,SS-001771,96.25,ADAMS AV,49TH ST,WINONA AV,393.1163,36.0,Residential,AC Improved,14152.1868,Good,1362147.9795,32.7628392,-117.0891005,32.7629128,-117.0878611
3649,SS-001772,67.242,ADAMS AV,MISSION CLIFF DR,NORTH AV,264.0175,52.0,Residential,AC Improved,13728.91,Fair,923159.3662200001,32.7624658,-117.1484265,32.7624666,-117.1475607
3650,SS-001773,82.28399999999999,ADAMS AV,NORTH AV,PARK BL,390.0207,52.0,Residential,AC Improved,20281.0764,Good,1668808.0904976001,32.7624666,-117.1475607,32.7624652,-117.1462754
3651,SS-001774,82.2,ADAMS AV,WINONA AV,50TH ST,334.1333,36.0,Residential,AC Improved,12028.7988,Good,988767.26136,32.7629128,-117.0878611,32.7628989,-117.0867753
3652,SS-001775,84.824,ADAMS AV,PARK BL,GEORGIA ST,383.0,52.0,Collector,AC Improved,19916.0,Good,1689354.784,32.7624652,-117.1462754,32.7624702,-117.1450468
3653,SS-001776,71.296,ADAMS AV,FLORIDA ST,ALABAMA ST,394.0,52.0,Collector,AC Improved,20488.0,Good,1460712.448,32.7624771,-117.1437942,32.7627312,-117.1425612
3654,SS-001777,79.944,ADAMS AV,GEORGIA ST,FLORIDA ST,377.0,52.0,Collector,AC Improved,19604.0,Good,1567222.176,32.7624702,-117.1450468,32.7624771,-117.1437942
3655,SS-001778,75.212,ADAMS AV,50TH ST,ALTADENA AV,325.0154,36.0,Residential,AC Improved,11700.5544,Good,880022.0975328,32.7628989,-117.0867753,32.7628931,-117.0856981
3656,SS-001779,79.5,ADAMS AV,55TH ST,56TH ST,365.0552,30.0,Residential,PCC Jointed Concrete,10951.656,Good,870656.652,32.762648,-117.0760936,32.7626466,-117.0748949
3657,SS-001780,82.1,ADAMS AV,56TH ST,EL CERRITO DR,389.0645,30.0,Residential,PCC Jointed Concrete,11671.935,Good,958265.8635,32.7626466,-117.0748949,32.7626358,-117.0736263
3658,SS-001781,72.084,ADAMS AV,ANTIOCH PL,ALMA PL,406.7973,36.0,Residential,AC Improved,14644.7028,Good,1055648.7566352,32.7618911,-117.081409,32.7622625,-117.0802235
3659,SS-001782,66.102,ADCOCK LN,DANCY RD,GASTON DR,295.55400000000003,36.0,Residential,AC Improved,10639.944,Fair,703321.578288,32.909034,-117.1557753,32.9097613,-117.1562165
3661,SS-001784,34.914,ADDISON ST,CLOVE ST,EMERSON ST,927.6904,34.0,Residential,AC Improved,31541.4736,Poor,1101239.0092703998,32.725498,-117.235909,32.7276653,-117.2370897
3663,SS-001786,43.31,ADELAIDE AV,COLLEGE AV,TARRAGONA DR,236.0,41.0,Residential,AC Improved,9676.0,Fair,419067.56,32.7577357,-117.0663806,32.7577204,-117.0655892
3664,SS-001787,78.324,ADELAIDE AV,56TH ST,58TH ST,632.0285,40.0,Residential,PCC Jointed Concrete,25281.14,Good,1980120.0093599998,32.7576672,-117.0749656,32.7576441,-117.0728861
3665,SS-001788,37.17,ADELAIDE AV,60TH ST,COLLEGE AV,683.7096,30.0,Residential,AC Improved,20511.288,Poor,762404.57496,32.7576792,-117.0685483,32.7577357,-117.0663806
3666,SS-001789,67.892,ADELAIDE AV,58TH ST,59TH ST,795.2038,40.0,Residential,AC Improved,31808.152000000002,Fair,2159519.055584,32.7576441,-117.0728861,32.7576035,-117.0702719
3667,SS-001790,63.008,ADELAIDE AV,59TH ST,VALE WY,174.4849,40.0,Collector,AC Improved,6979.396,Fair,439757.78316800005,32.7576035,-117.0702719,32.7575404,-117.0699253
3669,SS-001792,49.0,ADELAIDE AV,TARRAGONA DR,CARLING DR,487.0,31.0,Residential,AC Improved,15097.0,Fair,739753.0,32.7577204,-117.0655892,32.7574033,-117.0639962
3670,SS-001793,54.172,ADELANTE AV,AIROSO AV,CITY BOUNDARY,289.1304,16.0,Residential,AC Improved,4626.0864,Fair,250604.35246079997,32.7775376,-117.0521762,32.7778707,-117.0514494
3672,SS-001795,62.138000000000005,ADENA LN,FAIRHOPE RD,DEVEREUX RD,1205.988,24.0,Residential,AC Improved,28943.712000000003,Fair,1798504.3762560003,33.0325507,-117.0731205,33.035519,-117.0724446
3673,SS-001796,46.548,ADERMAN AV,WALLINGFORD RD,CHINON CR,295.97,40.0,Residential,AC Improved,11838.8,Fair,551072.4624,32.9100873,-117.1632434,32.9100336,-117.1642031
3674,SS-001797,47.876000000000005,ADERMAN AV,DABNEY DR,WALLINGFORD RD,188.8761,40.0,Residential,AC Improved,7555.044,Fair,361705.28654400003,32.9099242,-117.162691,32.9100873,-117.1632434
3675,SS-001798,97.24,ADERMAN AV,FARGATE TR,SCHILLING AV,209.0804,40.0,Residential,AC Improved,8363.216,Good,813239.12384,32.909493,-117.1661599,32.9093795,-117.1668766
3676,SS-001799,65.05,ADERMAN AV,MIRA MESA BL,DABNEY DR,336.7944,60.0,Residential,AC Improved,20207.664,Fair,1314508.5432,32.909231,-117.1621477,32.9099242,-117.162691
3677,SS-001800,83.85,ADERMAN AV,DANCY RD,MIRA MESA BL,688.8532,40.0,Residential,AC Improved,27554.127999999997,Good,2310413.6328,32.9072954,-117.1619522,32.909231,-117.1621477
3678,SS-001801,79.562,ADERMAN AV,FLANDERS DR,DANCY RD,605.9283,40.0,Residential,AC Improved,24237.132,Good,1928354.696184,32.9061546,-117.1606368,32.9072954,-117.1619522
3680,SS-001803,55.08,ADERMAN AV,CHINON CR,FARGATE TR,671.0748,40.0,Residential,AC Improved,26842.992000000002,Fair,1478511.99936,32.9100336,-117.1642031,32.909493,-117.1661599
3682,SS-001805,73.7,ADKINS WY,MATSON WY,GIFFIN WY,525.1989,36.0,Residential,AC Improved,18907.1604,Good,1393457.7214799998,32.9088239,-117.1609817,32.9090686,-117.159518
3685,SS-001808,95.32799999999999,ADMIRAL AV,MELBOURNE DR,MISSION VILLAGE DR,384.4921,37.0,Residential,AC Improved,14226.2077,Good,1356155.9276256,32.8004929,-117.1287214,32.801326,-117.1278862
3686,SS-001809,92.868,ADMIRAL AV,AMULET ST,MELBOURNE DR,1165.3016,37.0,Residential,AC Improved,43116.1592,Good,4004111.4725856003,32.7977586,-117.130552,32.8004929,-117.1287214
3687,SS-001810,89.26799999999999,ADMIRAL AV,EPAULETTE ST,AMULET ST,366.6862,33.0,Residential,AC Improved,12100.6446,Good,1080200.3421528,32.7968771,-117.1308248,32.7977586,-117.130552
3689,SS-001812,73.778,ADOBE BLUFFS DR,LA TRUCHA ST,EL ASADO ST,270.0,40.0,Residential,AC Improved,10800.0,Good,796802.4,32.9742559,-117.1393203,32.9742002,-117.1384013
3690,SS-001813,78.04,ADOBE BLUFFS DR,EL ASADO ST,SPARREN AV,349.0,40.0,Residential,AC Improved,13960.0,Good,1089438.4,32.9742002,-117.1384013,32.9742075,-117.1372834
3692,SS-001815,80.748,ADOBE BLUFFS DR,WATERFORD LN,LA TRUCHA ST,847.0,40.0,Residential,AC Improved,33880.0,Good,2735742.24,32.9742357,-117.1421008,32.9742559,-117.1393203
3695,SS-001818,84.38799999999999,ADOBE FALLS RD,WARING RD,ALVARADO CANYON RD,808.4178,48.0,Collector,AC Improved,38804.0544,Good,3274596.5427072,32.784535,-117.0856433,32.7828486,-117.086466
3697,SS-001820,56.32,ADOBE FALLS RD,ADOBE FALLS PL,MILL PEAK RD,697.2123,40.0,Residential,PCC Jointed Concrete,27888.492000000002,Fair,1570679.86944,32.7822796,-117.0713305,32.7823968,-117.0697803
3702,SS-001825,90.23200000000001,ADRIAN ST,POLACK ST,BOB ST,637.8361,40.0,Residential,AC Improved,25513.444,Good,2302129.079008,32.7491676,-117.2270785,32.7506675,-117.225932
3703,SS-001826,87.764,ADRIAN ST,BOB ST,RUE D ORLEANS,794.3413,20.0,Prime,AC Improved,15886.826000000001,Good,1394291.397064,32.7506675,-117.225932,32.7528098,-117.2265307
3704,SS-001827,80.52,ADRIATIC PL,AQUA MANSA RD,ACAMA ST,198.4336,36.0,Residential,AC Improved,7143.6096,Good,575203.444992,32.925911,-117.1528252,32.9264445,-117.1529004
3705,SS-001828,96.87200000000001,ADRIATIC PL,SEAWIND CV,AQUA MANSA RD,248.018,36.0,Residential,AC Improved,8928.648000000001,Good,864935.9890559999,32.9252342,-117.1528105,32.925911,-117.1528252
3710,SS-001833,73.238,AEGEAN CT,ALONDA WY,ANDASOL ST,251.0081,36.0,Residential,AC Improved,9036.2916,Good,661799.9242008,32.925095,-117.158836,32.9250906,-117.1580158
3711,SS-001834,84.32799999999999,AEGEAN DR,PARIS WY,AEGEAN PL,254.0179,40.0,Residential,AC Improved,10160.716,Good,856832.858848,32.6787541,-117.0447525,32.678188,-117.044281
3712,SS-001835,76.096,AEGEAN DR,AEGEAN PL,SIMI PL,173.2167,40.0,Residential,AC Improved,6928.668000000001,Good,527243.920128,32.678188,-117.044281,32.677803,-117.043953
3713,SS-001836,81.344,AEGEAN DR,SIMI PL,AEGEAN WY,106.2307,40.0,Residential,AC Improved,4249.228,Good,345649.202432,32.677803,-117.043953,32.677559,-117.043747
3714,SS-001837,78.652,AEGEAN DR,AEGEAN WY,PARKSIDE AV,375.5509,40.0,Residential,AC Improved,15022.036,Good,1181513.175472,32.677559,-117.043747,32.677406,-117.042664
3717,SS-001840,55.86,AERO CT,AERO (FTG) RD,AERO DR,96.0,46.0,Residential,AC Improved,4416.0,Fair,246677.76,32.808736,-117.1485386,32.809644,-117.1485711
3718,SS-001841,60.316,AERO CT,AERO PL,AERO (FTG) RD,482.0166,46.0,Residential,PCC Jointed Concrete,22172.7636,Fair,1337372.4092976002,32.8079713,-117.1485226,32.808736,-117.1485386
3720,SS-001843,85.448,AERO DR,CORPORATE CT,RUFFIN RD,619.0,82.0,Major,AC Improved,50758.0,Good,4337169.584,32.8098601,-117.1317758,32.8087626,-117.1189828
3721,SS-001844,79.836,AERO DR,AERO CT,AFTON RD,1254.0,92.0,Major,AC Improved,115368.0,Good,9210519.648,32.809644,-117.1485711,32.8095824,-117.1444885
3722,SS-001845,89.21,AERO DR,KEARNY VILLA RD,AERO CT,767.0,92.0,Major,AC Improved,70564.0,Good,6295014.44,32.8101113,-117.1508242,32.809644,-117.1485711
3723,SS-001847,88.12799999999999,AERO DR,DALEY CENTER DR,MURPHY CANYON RD,799.0,118.0,Major,AC Improved,94282.0,Good,8308884.096,32.8086184,-117.1189083,32.8095325,-117.1165301
3724,SS-001848,91.92399999999999,AERO DR,WEST CANYON AV,DALEY CENTER DR,1051.0,82.0,Major,AC Improved,86182.0,Good,7922194.168,32.8082565,-117.1223136,32.8086184,-117.1189083
3725,SS-001849,72.656,AERO DR,CONVOY ST,KEARNY VILLA RD,892.2698,82.0,Major,AC Improved,73166.1236,Good,5315957.8762815995,32.8111464,-117.1536272,32.8101113,-117.1508242
3726,SS-001850,84.458,AERO DR,MURPHY CANYON RD,SANTO RD,3700.4205,82.0,Major,AC Improved,303434.481,Good,25627469.396298002,32.8095325,-117.1165301,32.8097639,-117.1053942
3727,SS-001851,86.902,AERO DR,JOHN J MONTGOMERY DR,CORPORATE CT,2569.0,82.0,Major,AC Improved,210658.0,Good,18306601.516,32.8097786,-117.1402086,32.8098601,-117.1317758
3728,SS-001852,82.296,AERO DR,AFTON RD,JOHN J MONTGOMERY DR,1338.0,92.0,Major,AC Improved,123096.0,Good,10130308.416000001,32.8095824,-117.1444885,32.8097786,-117.1402086
3729,SS-001853,94.57,AERO DR,RUFFIN RD,WEST CANYON AV,2358.0,82.0,Major,AC Improved,193356.0,Good,18285676.92,32.8087626,-117.1189828,32.8082565,-117.1223136
3731,SS-001855,50.62,AERONCA AV,DONLEY ST,CHICAGO ST,296.9997,30.0,Residential,AC Improved,8909.991,Fair,451023.74442,32.7981065,-117.205382,32.798088,-117.204407
3733,SS-001857,49.31,AFTON RD,FENSMUIR ST,EAMES ST,263.0077,40.0,Major,AC Improved,10520.308,Fair,518756.38748000003,32.806312,-117.1444846,32.8070198,-117.1444765
3734,SS-001858,44.58,AFTON RD,HURLBUT ST,GLENHAVEN ST,246.0019,40.0,Major,AC Improved,9840.076,Fair,438670.58808,32.8048982,-117.1444615,32.8055825,-117.1444739
3735,SS-001861,49.096000000000004,AFTON RD,NEVA AV,MACAWA AV,293.4366,40.0,Major,AC Improved,11737.464,Fair,576262.532544,32.7996414,-117.1453448,32.8004552,-117.1452602
3736,SS-001862,47.08,AFTON RD,ONALASKA AV,NEVA AV,270.5063,40.0,Major,AC Improved,10820.252,Fair,509417.46416000003,32.7989187,-117.145369,32.7996414,-117.1453448
3737,SS-001863,39.964,AFTON RD,DUBONNET ST,AERO DR,657.0189999999999,40.0,Major,AC Improved,26280.76,Poor,1050284.2926399999,32.8078295,-117.1444778,32.8095824,-117.1444885
3738,SS-001864,54.406000000000006,AFTON RD,EAMES ST,DUBONNET ST,297.0153,40.0,Major,AC Improved,11880.612,Fair,646376.576472,32.8070198,-117.1444765,32.8078295,-117.1444778
3739,SS-001865,43.263999999999996,AFTON RD,GLENHAVEN ST,FENSMUIR ST,263.0077,40.0,Major,AC Improved,10520.308,Fair,455150.60531199997,32.8055825,-117.1444739,32.806312,-117.1444846
3740,SS-001868,80.5,AGAPANTHUS DR,PITTSBURGH AV,VARNEY DR,432.0987,36.0,Residential,AC Improved,15555.5532,Good,1252222.0326,32.6975196,-117.0609413,32.6963353,-117.060736
3742,SS-001870,64.058,AGATE ST,DAWES ST,CARDENO DR,1151.8043,33.0,Residential,AC Improved,38009.5419,Fair,2434815.2350302003,32.810818,-117.253998,32.811611,-117.250378
3743,SS-001871,32.19,AGATE ST,CASS ST,DAWES ST,578.2052,36.0,Residential,AC Improved,20815.3872,Poor,670047.313968,32.8104257,-117.2558173,32.810818,-117.253998
3744,SS-001872,43.278,AGATE ST,LA JOLLA MESA DR,CASS ST,1191.8423,36.0,Residential,AC Improved,42906.3228,Fair,1856899.8381383999,32.8096351,-117.2595324,32.8104257,-117.2558173
3746,SS-001874,83.648,AGEE ST,PAVLOV AV,GOVERNOR DR,283.6355,40.0,Residential,AC Improved,11345.42,Good,949021.6921600001,32.8533941,-117.2004693,32.8541367,-117.2000407
3747,SS-001875,89.476,AGEE ST,RAYA WY,PAVLOV AV,703.6247,40.0,Residential,AC Improved,28144.987999999998,Good,2518300.9462880003,32.8515623,-117.2012194,32.8533941,-117.2004693
3748,SS-001876,90.064,AGEE ST,CHARAE ST,RAYA WY,476.0515,40.0,Residential,AC Improved,19042.06,Good,1715004.09184,32.8502642,-117.2012606,32.8515623,-117.2012194
3749,SS-001877,89.60600000000001,AGEE ST,KARENSUE AV,CHARAE ST,533.7659,40.0,Residential,AC Improved,21350.636000000002,Good,1913145.089416,32.848835,-117.20153,32.8502642,-117.2012606
3750,SS-001878,93.714,AGEE ST,COZZENS ST,KARENSUE AV,271.9061,40.0,Residential,AC Improved,10876.243999999999,Good,1019256.330216,32.847725,-117.200691,32.848835,-117.20153
3752,SS-001880,90.054,AGOSTO ST,DEL SUR BL,PIEDRA ST,1188.1861,36.0,Residential,AC Improved,42774.6996,Good,3852032.7977783997,32.571145,-117.0581231,32.57119,-117.0541994
3753,SS-001881,68.898,AGOSTO ST,MARZO ST,DEL SUR BL,452.0045,36.0,Residential,AC Improved,16272.162,Fair,1121119.417476,32.5711354,-117.0595148,32.571145,-117.0581231
3758,SS-001886,92.348,AGUACATE WY,CRECIENTE WY,ALBORADA DR,199.9076,36.0,Residential,AC Improved,7196.6736,Good,664598.4136128001,33.042366,-117.0807655,33.0428409,-117.0804267
3759,SS-001887,55.803999999999995,AGUACATE WY,AGUAMIEL RD,CRECIENTE WY,385.7227,36.0,Residential,AC Improved,13886.0172,Fair,774895.3038288,33.041378,-117.080482,33.042366,-117.0807655
3761,SS-001889,48.078,AGUAMIEL RD,AGUACATE WY,CABELA DR,668.7049,40.0,Residential,AC Improved,26748.196,Fair,1285999.7672879999,33.041378,-117.080482,33.0411107,-117.0784298
3762,SS-001890,47.316,AGUAMIEL RD,CABELA DR,WEST BERNARDO DR,168.5189,40.0,Residential,AC Improved,6740.755999999999,Fair,318945.610896,33.0411107,-117.0784298,33.040953,-117.0779244
3763,SS-001891,54.272,AGUAMIEL RD,AZUCAR WY,AGUACATE WY,562.6358,40.0,Residential,AC Improved,22505.432,Fair,1221414.805504,33.0403406,-117.0817989,33.041378,-117.080482
3764,SS-001892,53.602,AGUAMIEL RD,DUENDA RD,PAJARO WY,434.2475,40.0,Residential,AC Improved,17369.9,Fair,931061.3798,33.0364806,-117.0840989,33.0374329,-117.0832384
3765,SS-001893,55.431999999999995,AGUAMIEL RD,PAJARO WY,AZUCAR WY,1173.2534,40.0,Residential,AC Improved,46930.136,Fair,2601431.298752,33.0374329,-117.0832384,33.0403406,-117.0817989
3767,SS-001896,69.76,AILSA CT,OTAY MESA RD,ST ANDREWS AV,682.012,64.0,Residential,AC Improved,43648.768,Fair,3044938.0556799998,32.5677594,-116.9710895,32.5659704,-116.9711426
3769,SS-001898,65.124,AINSLEY RD,AINSLEY CT,ABBOTSHILL RD,186.6189,40.0,Residential,PCC Jointed Concrete,7464.755999999999,Fair,486134.76974399993,32.7834324,-117.1506482,32.7839528,-117.1505812
3770,SS-001899,86.696,AINSLEY RD,POLIZZI PL,AINSLEY CT,258.0076,40.0,Residential,AC Improved,10320.304,Good,894729.075584,32.7827159,-117.1506357,32.7834324,-117.1506482
3771,SS-001900,20.73,AINSLEY RD,KAPLAN DR,POLIZZI PL,271.0167,40.0,Residential,AC Improved,10840.668,Poor,224727.04764,32.7819856,-117.1506164,32.7827159,-117.1506357
3773,SS-001907,35.588,AIROSO AV,DEL CERRO AV,DARTFORD WY,267.8771,30.0,Residential,AC Improved,8036.313,Poor,285996.307044,32.7790406,-117.0605117,32.7787875,-117.059675
3775,SS-001909,35.264,AIROSO AV,DARTFORD WY,BROMLEY WY,890.0126,30.0,Residential,AC Improved,26700.377999999997,Poor,941562.129792,32.7787875,-117.059675,32.7781369,-117.0569013
3776,SS-001910,88.64,AIROSO AV,BROMLEY WY,ADELANTE AV,1501.2574,30.0,Residential,AC Improved,45037.722,Good,3992143.6780800004,32.7781369,-117.0569013,32.7775376,-117.0521762
3777,SS-001911,85.96,AIRWAY RD,CACTUS RD,CONTINENTAL ST,1323.1867,20.0,Residential,AC Improved,26463.734,Good,2274822.5746400002,32.5606152,-116.9883803,32.5600722,-116.9600325
3778,SS-001912,81.652,AIRWAY RD,CONTINENTAL ST,BRITANNIA BL,1322.6873,30.0,Residential,AC Improved,39680.619,Good,3240001.902588,32.5600722,-116.9600325,32.5606678,-116.9797101
3779,SS-001913,75.34,AIRWAY RD,BRITANNIA BL,DUBLIN DR,1334.13,20.0,Major,AC Improved,26682.6,Good,2010267.084,32.5606678,-116.9797101,32.5606597,-116.9754274
3780,SS-001914,80.93,AIRWAY RD,DUBLIN DR,EXCELLANTE ST,2024.8565,20.0,Collector,AC Improved,40497.13,Good,3277432.7309,32.5606597,-116.9754274,32.5606293,-116.9689163
3781,SS-001915,64.148,AIRWAY RD,EXCELLANTE ST,CENTURION ST,663.0283,20.0,Collector,AC Improved,13260.566,Fair,850638.787768,32.5606293,-116.9689163,32.5606263,-116.9667411
3782,SS-001916,53.202,AIRWAY RD,CENTURION ST,LA MEDIA RD,1335.5585,20.0,Collector,AC Improved,26711.17,Fair,1421087.66634,32.5606263,-116.9667411,32.5605783,-116.9624751
3783,SS-001917,62.318000000000005,AIRWAY RD,LA MEDIA RD,AVNDA COSTA AZUL,1523.9269,40.0,Collector,AC Improved,60957.075999999994,Fair,3798723.062168,32.5605783,-116.9624751,32.5604888,-116.9574314
3784,SS-001918,84.662,AIRWAY RD,AVNDA COSTA AZUL,HARVEST RD,3797.111,70.0,Collector,AC Improved,265797.77,Good,22502970.80374,32.5604888,-116.9574314,32.5602793,-116.9450688
3785,SS-001919,73.444,AIRWAY RD,HARVEST RD,SR-905,201.0223,40.0,Major,AC Improved,8040.892,Good,590555.2720479999,32.5602793,-116.9450688,32.5600722,-116.9600325
3786,SS-001921,79.12,AIRWAY RD,HARVEST RD,HEINRICH HERTZ DR,1137.2533,20.0,Collector,AC Improved,22745.066000000003,Good,1799589.62192,32.5602793,-116.9450688,32.5602035,-116.9408083
3787,SS-001922,58.13,AIRWAY RD,SANYO AV,HEINRICH HERTZ DR,1494.46,71.0,Collector,AC Improved,106106.66,Fair,6167980.1458,32.560309,-116.940805,32.5602035,-116.9408083
3788,SS-001923,83.64,AIRWAY RD,OTAY MESA RD,CALIENTE AV,1760.0828,30.0,Major,AC Improved,52802.484000000004,Good,4416399.76176,32.5669351,-117.0196359,32.5644345,-117.0151358
3790,SS-001925,77.428,AKINS AV,69TH ST,CITY BOUNDARY,1205.2434,30.0,Residential,AC Improved,36157.302,Good,2799587.579256,32.712514,-117.0493544,32.7109108,-117.0580697
3791,SS-001926,41.032,AKINS AV,68TH ST,69TH ST,714.1116,30.0,Collector,AC Improved,21423.347999999998,Fair,879042.815136,32.7117254,-117.0514667,32.712514,-117.0493544
3792,SS-001927,48.48,AKINS AV,67TH ST,68TH ST,867.67,30.0,Collector,AC Improved,26030.1,Fair,1261939.248,32.7113678,-117.0542428,32.7117254,-117.0514667
3793,SS-001928,45.968,AKINS AV,66TH ST,67TH ST,488.1255,30.0,Collector,AC Improved,14643.765,Fair,673144.58952,32.7111889,-117.0558188,32.7113678,-117.0542428
3794,SS-001929,41.211999999999996,AKINS AV,65TH ST,66TH ST,693.1742,34.0,Collector,AC Improved,23567.9228,Fair,971281.2344336001,32.7109108,-117.0580697,32.7111889,-117.0558188
3795,SS-001930,44.004,AKINS AV,64TH ST,65TH ST,515.9088,34.0,Collector,AC Improved,17540.8992,Fair,771869.7283968,32.7107016,-117.0597186,32.7109108,-117.0580697
3796,SS-001931,46.526,AKINS AV,STORK ST,64TH ST,439.2563,34.0,Collector,AC Improved,14934.7142,Fair,694852.5128692,32.7105272,-117.0611905,32.7107016,-117.0597186
3797,SS-001932,45.732,AKINS AV,63RD ST,STORK ST,427.0946,34.0,Collector,AC Improved,14521.2164,Fair,664084.2684048,32.7103572,-117.062556,32.7105272,-117.0611905
3798,SS-001933,74.62,AKINS AV,62ND ST,63RD ST,442.2274,36.0,Collector,AC Improved,15920.1864,Good,1187964.309168,32.7101856,-117.0639945,32.7103572,-117.062556
3799,SS-001934,50.824,AKINS AV,FERGUS ST,62ND ST,468.5308,36.0,Collector,AC Improved,16867.1088,Fair,857253.9376511999,32.7100058,-117.0654646,32.7101856,-117.0639945
3800,SS-001935,37.546,AKINS AV,61ST ST,FERGUS ST,389.7588,36.0,Collector,AC Improved,14031.3168,Poor,526819.8205728,32.709848,-117.0667261,32.7100058,-117.0654646
3801,SS-001936,95.33200000000001,AKINS AV,60TH ST,61ST ST,401.9206,36.0,Collector,AC Improved,14469.1416,Good,1379372.2070112,32.7096934,-117.0680118,32.709848,-117.0667261
3802,SS-001937,47.79,AKINS AV,IONA DR,60TH ST,302.5972,36.0,Collector,AC Improved,10893.4992,Fair,520600.326768,32.7096039,-117.0690071,32.7096934,-117.0680118
3805,SS-001940,62.861999999999995,AKRON ST,HILL ST,TRUMBULL ST,317.0,23.0,Residential,AC Improved,7291.0,Fair,458326.842,32.722019,-117.236931,32.722874,-117.23671
3806,SS-001942,71.0,AL BAHR DR,SOLEDAD AV,CRESPO,452.2457,20.0,Residential,AC Improved,9044.914,Good,642188.894,32.8448835,-117.2660895,32.8441852,-117.2655843
3807,SS-001943,68.86,AL BAHR DR,CRESPO,CRESPO,245.3392,40.0,Residential,AC Improved,9813.568000000001,Fair,675762.2924800001,32.8441852,-117.2655843,32.8441852,-117.2655843
